ids,names,rating,review_count,price,transactions,is_closed,type_food,type_food_alias,latitude,longitude,country,state,city,zip_code
bspGO743LzemMRSfpbrh8A,PERL by Chef IP,5.0,6,,,False,"Seafood, Mediterranean, Cocktail Bars","seafood, mediterranean, cocktailbars",25.947124,-80.152363,US,FL,Miami,33180
CMPipZElCaiY7iwkIGmeSA,Etzel Itzik Deli,4.5,193,$$,['delivery'],False,"Delis, Middle Eastern","delis, mideastern",25.94915,-80.14846,US,FL,Miami,33180
uYyMp91kDtm-yaHQptkByA,Dixie BBQ,3.5,33,$,"['delivery', 'pickup']",False,"Barbeque, Burgers, Kosher","bbq, burgers, kosher",25.9491111,-80.149078,US,FL,Miami,33180
62zeRayPOD9QLJrWhyF5_g,Pita Plus of Aventura,4.0,220,$$,['delivery'],False,"Middle Eastern, Mediterranean, Burgers","mideastern, mediterranean, burgers",25.950120818439,-80.1446559562752,US,FL,Miami,33180
VkAqhLt9mAhPPf6j469mHg,Maam's Jamaican Restaurant,4.0,60,$,['delivery'],False,Caribbean,caribbean,25.964294,-80.171981,US,FL,Miami,33179
_MGD3BbGcjlkPi6Hm_SggQ,POKÉ + GO,4.5,238,$$,"['delivery', 'pickup']",False,"Poke, Hawaiian, Japanese","poke, hawaiian, japanese",25.9476,-80.150806,US,FL,Miami,33180
vagpyJ1IxZJmsNyYMQ0Y6g,Sr Ceviche - Aventura,4.0,217,$$,"['delivery', 'pickup']",False,Peruvian,peruvian,25.94706,-80.1496,US,FL,Miami,33180
nE5cDKXAZhNyjkbPD-x65w,Chef Adrianne's Vineyard Restaurant And Bar,4.5,1321,$$$,['delivery'],False,"Steakhouses, Seafood, Cocktail Bars","steak, seafood, cocktailbars",25.68853,-80.38399,US,FL,Miami,33183
Jbzw5Q43tZcQjzC4obMvFA,Bolay,5.0,8,,,False,American (New),newamerican,25.686937,-80.38645,US,FL,Miami,33183
VMuV-zwkipqCpAjU060EwQ,Rib's On Wheels,4.0,14,,"['delivery', 'pickup']",False,"Barbeque, Food Trucks","bbq, foodtrucks",25.6897455,-80.3821113,US,FL,Miami,33183
vnwvaCzs_sp2qz7agMB9Jw,Jealous Fork,5.0,66,,['delivery'],False,"Food Trucks, Pancakes","foodtrucks, pancakes",25.6904573202535,-80.3660171851516,US,FL,Miami,33173
fylIHQF8VF2DwLWNUCq3og,Tacos & Tattoos,4.0,1891,$$,"['delivery', 'pickup']",False,"Mexican, Street Vendors","mexican, streetvendors",25.671308,-80.385997,US,FL,Miami,33186
JL8g4L5FiwpWrJaqzSk-PA,Pisco Y Nazca,4.0,1084,$$,"['delivery', 'pickup']",False,"Gastropubs, Peruvian, Cocktail Bars","gastropubs, peruvian, cocktailbars",25.689225,-80.385941,US,FL,Miami,33183
koxGGPEa-xruE2yAFToBKA,Aladdin Market & Grill,5.0,133,$,"['delivery', 'pickup']",False,"Mediterranean, Middle Eastern","mediterranean, mideastern",25.697096,-80.3825483390402,US,FL,Miami,33183
nlL3PNq9_2mPKEKmSkzkGg,Makan Miami,5.0,10,,"['delivery', 'pickup']",False,"Food Trucks, Peruvian, Asian Fusion","foodtrucks, peruvian, asianfusion",25.6859044,-80.381262,US,FL,Miami,33176
URZ80u6iSD_m8H9aFkiUNg,Secreto Restaurant,4.0,202,$$,['delivery'],False,Italian,italian,25.6852061606135,-80.3838493881134,US,FL,Miami,33176
KRkMW4OQ64g4YfTFgNkTDg,Bigotes Y Sombreros,4.5,122,$$,"['delivery', 'pickup']",False,Mexican,mexican,25.66872,-80.37852,US,FL,Miami,33176
GI5HdnF3CYHxxlU4AKkn7A,Crafty Crab - Sunset,4.5,33,,"['delivery', 'pickup']",False,"Cajun/Creole, Seafood","cajun, seafood",25.70257,-80.36929,US,FL,Miami,33173
e_J071_2K5kfZx-FLNefaw,Tik Tea,4.5,18,,,False,"Ramen, Bubble Tea, Juice Bars & Smoothies","ramen, bubbletea, juicebars",25.671695,-80.37128,US,FL,Miami,33176
mMztNkATAt2BEbkSGADe7g,Puerto Madero Miami,4.0,357,$$,['delivery'],False,"Argentine, Steakhouses, Meat Shops","argentine, steak, meats",25.6869311748724,-80.4024184408987,US,FL,Miami,33186
otGxXX2FoqzUzwtbMx9r4A,Hibachi Grill Masters,3.5,51,,"['delivery', 'pickup']",False,Japanese,japanese,25.6884516923553,-80.3861065126954,US,FL,Miami,33183
jmlB4orZNZOE_er32PJkDQ,Hibachi Grill Masters,4.0,15,$,"['delivery', 'pickup']",False,"Japanese, Food Trucks","japanese, foodtrucks",25.68905,-80.385878,US,FL,Miami,33183
DaoaDCNvmvHIxdjSUz9d2w,Off The Grille Kendall,4.0,356,$$,"['delivery', 'pickup']",False,"Latin American, American (New)","latin, newamerican",25.6844316707114,-80.3987487957702,US,FL,Miami,33186
pL2NBv2aeAipPTAoNXkJCA,Shawarma Mediterranean Grill,4.0,169,$$,['delivery'],False,"Mediterranean, Middle Eastern","mediterranean, mideastern",25.6861151,-80.3857882,US,FL,Miami,33186
3jGa1-ZdDgH36lvU7IuBxQ,Flanigan's Seafood Bar & Grill,3.5,419,$$,,False,"Seafood, American (Traditional), Sports Bars","seafood, tradamerican, sportsbars",25.685498067409,-80.4018624111896,US,FL,Miami,33186
a6DwmDRt0MRnXlA4FmKgbQ,Los Arrieros,4.0,98,$$,"['delivery', 'pickup']",False,Colombian,colombian,25.68758,-80.36325,US,FL,Miami,33176
5nEpXI4LM9URZkMGV-YoTg,Pincho,3.5,283,$$,,False,"American (New), Burgers, Latin American","newamerican, burgers, latin",25.6844667622599,-80.399262830615,US,FL,Miami,33186
Z4CkBVAWH4x5eQwpe_LBSg,Miller's Ale House - Kendall,3.0,244,$$,,False,"Seafood, American (Traditional), Sports Bars","seafood, tradamerican, sportsbars",25.6878473728383,-80.3812856363444,US,FL,Miami,33176
QKl82uRyFU1CFgXhh5RgSg,Latin House Grill,3.5,1037,$$,"['delivery', 'pickup']",False,"Latin American, Burgers, Mexican","latin, burgers, mexican",25.68797,-80.3936,US,FL,Miami,33183
MGYbITlEe6e5n9ECn31gZg,Osteria Vecchio Piemonte,4.5,512,$$,['delivery'],False,Italian,italian,25.7010162587277,-80.3631066310896,US,FL,Miami,33173
pIODyR2n0TFRAVgmkQNBJQ,Outback Steakhouse,3.0,365,$$,,False,Steakhouses,steak,25.689116,-80.386059,US,FL,Miami,33183
Z1NSmtoWRqsR3Z2Ubfk_ew,Coppola's Ristorante Italiano,4.5,158,$$,['delivery'],False,Italian,italian,25.6999947,-80.3657110780478,US,FL,Miami,33173
lPSrRXp2_HbHjKTfJ4HXtw,Rock That Burger,4.0,205,$,"['delivery', 'pickup']",False,"Burgers, Fast Food, Hot Dogs","burgers, hotdogs, hotdog",25.7018203735352,-80.3828353881836,US,FL,Miami,33183
Xj2cv0FaPgq74VcqVWx4ZQ,Chef Chen,4.0,167,$$,"['delivery', 'pickup']",False,Chinese,chinese,25.68769,-80.38041,US,FL,Miami,33176
dkFoh742i2qOQLNrDYRSoQ,Gyroville,4.0,290,$,"['delivery', 'pickup']",False,"Greek, Halal, Mediterranean","greek, halal, mediterranean",25.6854457523934,-80.3644753710712,US,FL,Miami,33176
SgyBbAIF07AvbruNTsrYlw,Jamrock Cuisine,5.0,145,$,['pickup'],False,"Caribbean, Chinese, Asian Fusion","caribbean, chinese, asianfusion",25.6845522989498,-80.3985356472214,US,FL,Miami,33186
SJS0THOuL5s14IYUdBSrkQ,MyRoots Juice Bar & Kitchen,4.5,575,$$,"['delivery', 'pickup']",False,"Juice Bars & Smoothies, Vegan, Bagels","juicebars, vegan, bagels",25.68854,-80.39473,US,FL,Miami,33183
m--MOJY9YbuQdiCIT16rKA,Los Gauchos Cbs,5.0,2,,,False,"Argentine, Steakhouses, Food Trucks","argentine, steak, foodtrucks",25.705453001684564,-80.39848501744262,US,FL,Miami,33183
P79Q5dHFFZEQW5EhANkAIA,Maute Grill Miami,5.0,1,,,False,"Food Trucks, Steakhouses","foodtrucks, steak",25.70294,-80.38285,US,FL,Miami,33183
teLI2c6d0iuLG6VZFoCavA,El Rancho Grande Mexican Restaurant Kendall,4.0,617,$$,['delivery'],False,"Mexican, Desserts, Breakfast & Brunch","mexican, desserts, breakfast_brunch",25.6866320810011,-80.4025708288361,US,FL,Miami,33183
wk73QuXs6Q2kEI15wlR05w,Siam Bistro,4.5,238,$$,['delivery'],False,"Thai, Vietnamese","thai, vietnamese",25.6989235,-80.3823149,US,FL,Miami,33183
b22y7XL3OGToFp-HnDm4_A,Ken's Healthy Delights,4.5,123,$,"['delivery', 'pickup']",False,"Juice Bars & Smoothies, Bagels, Creperies","juicebars, bagels, creperies",25.6888599280073,-80.3878500312567,US,FL,Miami,33183
-KMCANuzPPgN18fl70x-hA,Jumwich Sandwich Shop,4.5,7,$,,False,Sandwiches,sandwiches,25.68597,-80.3812582,US,FL,Miami,33176
s0TgL7sY-W5qomS3YFeoHw,Bahama Breeze,3.0,489,$$,['delivery'],False,"Bars, Seafood, Latin American","bars, seafood, latin",25.686632,-80.393475,US,FL,Miami,33186
9nFN2n3GcdL-QMxC3N-d2A,The Melting Pot,3.5,238,$$$,,False,Fondue,fondue,25.699273,-80.380506,US,FL,Miami,33173
_Y0gaMPJhUo5c6ILOhoKNg,La Fogata Kendall,4.0,184,$$,"['delivery', 'pickup']",False,Latin American,latin,25.68693,-80.38686,US,FL,Miami,33183
oSctMM0gpVvb2Jc0h71DTQ,Pepitolandia Urban Grill,2.5,5,,"['delivery', 'pickup']",False,Venezuelan,venezuelan,25.6846178366743,-80.3652601316571,US,FL,Miami,33176
yUaZo9MpwTWyRVsqZN4zFA,Giardino Gourmet Salads,4.0,216,$$,"['delivery', 'pickup']",False,"Salad, Soup, Wraps","salad, soup, wraps",25.6857734319577,-80.38382193823,US,FL,Miami,33176
fF_TXXKP5AouBGHNgfxsew,LOCAL PIE,4.5,334,$$,"['delivery', 'pickup']",False,"Pizza, Salad","pizza, salad",25.6686986843865,-80.3783432724915,US,FL,Miami,33176
uw0h1J4Ll-ZulvXRl-VdCQ,Lime Fresh Mexican Grill,4.0,257,$,['delivery'],False,"Mexican, Salad","mexican, salad",25.6853673683062,-80.3987155045629,US,FL,Miami,33186
pbJWEgLD8nbxyHBb1V-AFA,Bocas Grill Kendall,4.0,603,$$,"['delivery', 'pickup']",False,"Latin American, Salad, Breakfast & Brunch","latin, salad, breakfast_brunch",25.6847160349408,-80.3922954574227,US,FL,Miami,33186
P-htC3807dnpvximCnWrBA,Fritanga Monimbo ,3.5,88,$,['delivery'],False,Fast Food,hotdogs,25.7017938452884,-80.3807791733895,US,FL,Miami,33255
VPyAcpEkV187JY8ApCFybA,Cuban Guys,4.0,332,$,"['delivery', 'pickup']",False,"Cuban, Sandwiches, Fast Food","cuban, sandwiches, hotdogs",25.701349,-80.367016,US,FL,Miami,33173
-n8R0nnlrAEhkNGBy1r1vg,Sumo 88,4.5,26,,"['delivery', 'pickup']",False,"Sushi Bars, Ramen, Bubble Tea","sushi, ramen, bubbletea",25.687461,-80.363059,US,FL,Miami,33176
klB7Wqa6uCiXkrNPV7el3A,El Toro Loco Churrascaria Kendall,4.5,8,,"['delivery', 'pickup']",False,"Steakhouses, Brazilian, Breakfast & Brunch","steak, brazilian, breakfast_brunch",25.68721,-80.36339,US,FL,Miami,33176
P49k7BgVacaDQc3HJcYnyQ,Bulla Gastrobar,4.0,60,,"['pickup', 'delivery']",False,"Spanish, Gastropubs, Tapas Bars","spanish, gastropubs, tapas",25.645593665636216,-80.3371250300396,US,FL,Miami,33176
KRkMW4OQ64g4YfTFgNkTDg,Bigotes Y Sombreros,4.5,122,$$,"['pickup', 'delivery']",False,Mexican,mexican,25.66872,-80.37852,US,FL,Miami,33176
e_J071_2K5kfZx-FLNefaw,Tik Tea,4.5,18,,,False,"Ramen, Bubble Tea, Juice Bars & Smoothies","ramen, bubbletea, juicebars",25.671695,-80.37128,US,FL,Miami,33176
QOCSukteJD8M2Flmq-PseA,The Crazy Toston,4.0,293,$,['pickup'],False,"Fast Food, Latin American","hotdogs, latin",25.6556320321457,-80.3827319791399,US,FL,Miami,33186
QsMP4RZABxqWCD6Iq7Y4Bw,Hole In The Wall,4.0,383,$$,['delivery'],False,"American (Traditional), Sports Bars, Chicken Wings","tradamerican, sportsbars, chicken_wings",25.6552104912513,-80.3826954304838,US,FL,Miami,33186
tseHV2x5u0UOyw6ZWPIzNA,K-Bab,5.0,5,,"['pickup', 'delivery']",False,Mediterranean,mediterranean,25.644638,-80.339223,US,FL,Miami,33176
tmvvoi7-T13LTvLPZF3qLA,Rinconcito Cubano of Kendall,4.0,60,$$,"['pickup', 'delivery']",False,Cuban,cuban,25.6551740232367,-80.382628783165,US,FL,Miami,33186
fF_TXXKP5AouBGHNgfxsew,LOCAL PIE,4.5,334,$$,"['pickup', 'delivery']",False,"Pizza, Salad","pizza, salad",25.6686986843865,-80.3783432724915,US,FL,Miami,33176
K2kMNsp70vYYRKohXPcceA,Chana Thai Kitchen,4.0,241,$$,"['pickup', 'delivery']",False,"Thai, Sushi Bars","thai, sushi",25.6454099,-80.33507,US,FL,Miami,33176
rakRpFgtXDMiRi4-N3A3cA,El Rinconcito Latino,3.5,41,$$,['delivery'],False,"Latin American, Cuban","latin, cuban",25.6722487402431,-80.3568242490292,US,FL,Miami,33176
kVHPTtFspIcSsu-yTQZ_sw,Hungry Bear Sub Shop,4.0,297,$,['delivery'],False,"Sandwiches, Salad, Burgers","sandwiches, salad, burgers",25.671188,-80.372491,US,FL,Miami,33176
X88xUqfO3C1sa4UYEYCXLQ,P.F. Chang's,3.0,340,$$,"['pickup', 'delivery']",False,"Chinese, Asian Fusion, Gluten-Free","chinese, asianfusion, gluten_free",25.6458347731816,-80.3396962711639,US,FL,Miami,33176
lVPK90oITsm5Mnk-qmKIFA,Outback Steakhouse,3.5,225,$$,,False,Steakhouses,steak,25.647982354389,-80.3387963961563,US,FL,Miami,33176
zP4vWin6EH1WdOihAaA_cg,Wings N Jerk,4.0,11,,"['pickup', 'delivery']",False,"Chicken Wings, Caribbean","chicken_wings, caribbean",25.6711702,-80.3723898,US,FL,Miami,33176
FDI1jPYgoy5yZiO0fqWX-Q,Slim Tastes,4.0,5,$,['delivery'],False,"Food Delivery Services, Salad, Caterers","fooddeliveryservices, salad, catering",25.6720872,-80.3709635,US,FL,Miami,33176
92dK2LXbjEGoy8x2z4Td_Q,Sokai Sushi Bar,3.5,289,$$,"['pickup', 'delivery']",False,"Sushi Bars, Japanese","sushi, japanese",25.6443825,-80.3394789,US,FL,Miami,33176
f2d7Te5K-nhgjeZUswLcPQ,Wow Bao,2.5,4,,['delivery'],False,"Dim Sum, Asian Fusion","dimsum, asianfusion",25.6510020824545,-80.3347050771117,US,FL,Miami,33176
rT2fwiSE0Vee0iF7MBMXlg,Pummarola -The Falls,3.5,50,$,"['pickup', 'delivery']",False,"Pizza, Italian","pizza, italian",25.644402,-80.3394789,US,FL,Miami,33176
8goihspIttYKwFW2yhbpkA,Inari Sushi Fusion  Kendall,4.5,155,$$,"['pickup', 'delivery']",False,"Sushi Bars, Peruvian, Japanese","sushi, peruvian, japanese",25.6687619,-80.3784809,US,FL,Miami,33176
62eT6bJ0VrKP_j1r2zgfEw,Sushi Sake Killian,3.0,156,$$,['delivery'],False,"Sushi Bars, Desserts, Soup","sushi, desserts, soup",25.67125,-80.37123,US,FL,Miami,33176
hyimrjjs2LDDdBhHinnJzg,Fu Lin Men,3.5,27,$,"['pickup', 'delivery']",False,Chinese,chinese,25.6716688355781,-80.3713697958575,US,FL,Miami,33176
T79-LVzxJD7rp8WKxqqkyw,Planet Smoothie The Falls,5.0,1,,,False,"Juice Bars & Smoothies, Diners, Breakfast & Brunch","juicebars, diners, breakfast_brunch",25.647846,-80.337087,US,FL,Miami,33176
YYEbzOjJbvyLgp4elwgPNA,Shake Shack,3.5,73,$$,['delivery'],False,"American (Traditional), Burgers, Fast Food","tradamerican, burgers, hotdogs",25.6445714,-80.3360796,US,FL,Miami,33176
l6f5vYf3bVmgoRR3l5AXbg,Chiki Town,5.0,13,,,False,"Cafes, Day Spas, Kids Activities","cafes, spas, kids_activities",25.64924,-80.33707,US,FL,Miami,33176
MqXUdY63EK7vYEiO6X0AbA,BJ's Restaurant & Brewhouse,3.0,379,$$,['delivery'],False,"American (New), Breweries, Pizza","newamerican, breweries, pizza",25.643767,-80.337119,US,FL,Miami,33176
5194FXoDTKX-XSfd0389ng,Ayesha Fine Dining,4.0,234,$$,"['pickup', 'delivery']",False,Indian,indpak,25.6384143829346,-80.3361282348633,US,FL,Miami,33176
wpK7SihZ-06ugIPVTo7RNw,Takee Outee 2 of Briar Bay,3.5,45,$$,['delivery'],False,Chinese,chinese,25.6489697,-80.339877,US,FL,Miami,33176
tQzC2NOdtJ3bo7e9N_Nngg,Killian Cafe & Grill,4.0,468,$$,['delivery'],False,"Breakfast & Brunch, American (New)","breakfast_brunch, newamerican",25.6716251,-80.3848422,US,FL,Miami,33186
Q3JJICIjSNLmm9zelfXH0w,Pina's Pizza,4.5,132,$,"['pickup', 'delivery']",False,"Pizza, Italian, Sandwiches","pizza, italian, sandwiches",25.6554203,-80.3826065,US,FL,Miami,33186
5cuk71zZW4EY9Y3_5pyNdA,Los Ranchos Steakhouse,3.0,273,$$,['delivery'],False,"Latin American, Steakhouses","latin, steak",25.643226,-80.336874,US,FL,Miami,33176
wpwRIf9tj-pMr2aU9Jt_cw,La Hormiga de Oro Fritanga,4.0,30,,"['pickup', 'delivery']",False,"Latin American, Breakfast & Brunch","latin, breakfast_brunch",25.6558,-80.385,US,FL,Miami,33186
Yx7qoG3Iu3pxSLVPCFcu4Q,Ranchuelo Coffee Shop,4.5,11,$,,False,"Cuban, Latin American, Sandwiches","cuban, latin, sandwiches",25.6501116603613,-80.3344110399485,US,FL,Miami,33176
xhoy21VlcO2QKHB8a-Egdg,Las Dos Palmas,3.5,30,$,['delivery'],False,"Sandwiches, Cuban","sandwiches, cuban",25.64859,-80.3386,US,FL,Miami,33176
ZT3DMuWy5vSteRf2X_WTyw,Lucky China,3.5,22,$,['delivery'],False,Chinese,chinese,25.6721923,-80.3714391,US,FL,Miami,33176
WlCPrNS5COFJukrhUxDUHA,Vayla's Gourmet Shaved Ice,4.5,42,$,['pickup'],False,"Shaved Ice, Gluten-Free, Ice Cream & Frozen Yogurt","shavedice, gluten_free, icecream",25.645316,-80.338996,US,FL,Miami,33176
whPlRnhwhy2dNvjDSBzrAw,Publix,2.5,17,$$,,False,"Grocery, Drugstores, Delis","grocery, drugstores, delis",25.6483199,-80.33916,US,FL,Miami,33176
jfu0NU4mfClKYfsUb5qCYg,Mama's Guava Bars,5.0,2,,,False,"Desserts, Farmers Market, Cuban","desserts, farmersmarket, cuban",25.66784,-80.37543,US,FL,Miami,33176
f8NssHrspdPBZOWyfvBq4Q,Cafe Villa Clara,4.0,45,$,"['pickup', 'delivery']",False,"Cuban, Coffee & Tea, Breakfast & Brunch","cuban, coffee, breakfast_brunch",25.6717234,-80.3725837,US,FL,Miami,33176
7Ohg0gG0R2pQM1oYAxEu4A,Dairy Queen,3.5,27,$,['delivery'],False,"Ice Cream & Frozen Yogurt, Burgers, Fast Food","icecream, burgers, hotdogs",25.6373844146729,-80.3366088867188,US,FL,Miami,33176
60EgLArVeAEFnLOl2TFYjw,Cafe OneTwentyOne,4.0,1,,,False,Cuban,cuban,25.6556406,-80.3846449,US,FL,Miami,33186
8bRdoQpMcZnGvLVidjc9Zg,College Park Inn,3.5,36,$,"['pickup', 'delivery']",False,"Pizza, American (Traditional), Sandwiches","pizza, tradamerican, sandwiches",25.6720877,-80.3707827,US,FL,Miami,33176
1FsofBA2yZTZ3VILdtWshA,Checkers,1.5,10,,['delivery'],False,"Burgers, Fast Food","burgers, hotdogs",25.636888,-80.336869,US,FL,Miami,33176
7FWBnVer_bviNeu5p5Vmzg,Macy's Taste Bar,3.5,5,,,False,"Food Court, Sandwiches","food_court, sandwiches",25.646055,-80.340477,US,FL,Miami,33176
6g45_Ier_TkMqV4OgpJ_ag,Lutti Pizza,3.0,6,,"['pickup', 'delivery']",False,"Pizza, Sandwiches, Salad","pizza, sandwiches, salad",25.672,-80.371385,US,FL,Miami,33176
7777TBQ2MuRXvfiDCh_Gbw,Koffeehouse,3.0,4,$,,False,Cafes,cafes,25.674724,-80.374069,US,FL,Miami,33176
1e5H7otjkq4qyQ-d90Wf9w,CrepeMaker,3.0,46,$$,"['pickup', 'delivery']",False,Creperies,creperies,25.644739151001,-80.3384399414062,US,FL,Miami,33176
psskZeu2ryAamerx-zNUCw,Little Caesars Pizza,1.5,17,$,,False,"Pizza, Fast Food","pizza, hotdogs",25.669689248159,-80.3846360743046,US,FL,Miami,33186
6zj0usvr1HgvFUP26Npawg,Chick-fil-A,3.0,8,,,False,Fast Food,hotdogs,25.779125,-80.195799,US,FL,Miami,33136
PK1zj4enNWd2xEV1o-2QMg,Rosies,5.0,21,,"['delivery', 'pickup']",False,"Breakfast & Brunch, Waffles, Pop-Up Restaurants","breakfast_brunch, waffles, popuprestaurants",25.7785,-80.20097,US,FL,Miami,33128
xzGdVsFbbx2kmkp6cQtBZA,Bucks Crepes,4.5,13,,['delivery'],False,"Creperies, French, Gluten-Free","creperies, french, gluten_free",25.7802779,-80.1956999,US,FL,Miami,33136
Z35jrNm7ylyQMwjfGGq-ew,El Rincon del Coqui - Food Truck,4.5,36,$,['pickup'],False,"Food Trucks, Puerto Rican, Sandwiches","foodtrucks, puertorican, sandwiches",25.779369354248,-80.1980895996094,US,FL,Miami,33101
LtZ1UJzzyCVTBdukQwsYIw,Bottega Cafe,4.0,1,,['delivery'],False,Cafes,cafes,25.7771911471419,-80.197246824136,US,FL,Miami,33128
r1VB1Q_vNucuyJ9dNVWMBQ,Patagonia Flavors By Delicatessen Patagonia,4.5,8,,,False,"Latin American, Mediterranean, Sandwiches","latin, mediterranean, sandwiches",25.7798794730399,-80.1957538592116,US,FL,Miami,33136
bF4lg2O9TA6MbWKzuG33hw,Kings Pasta & Subs,1.0,27,,,False,"Salad, Pasta Shops, Sandwiches","salad, pastashops, sandwiches",25.779369354248,-80.1980895996094,US,FL,Miami,33101
1VwduaNRlZ_fFDxDEI6i4w,Einstein Bros Bagels,2.5,24,,,False,"Bagels, Coffee & Tea, Breakfast & Brunch","bagels, coffee, breakfast_brunch",25.7800186180892,-80.1970851628067,US,FL,Miami,33128
02J_K2x9ISWLcyIHze-KKA,La Estacion American Brasserie,4.0,18,$$,['delivery'],False,"American (New), Brasseries","newamerican, brasseries",25.7800273788139,-80.1952403574342,US,FL,Miami,33136
Q-O4OE5xjGXipR4lvvvRCw,The Food Gallery,4.0,1,$,,False,"American (Traditional), Food Trucks","tradamerican, foodtrucks",25.77888,-80.19793,US,FL,Miami,33101
ql1aZwprie5fOQsr4Y-MNw,JOE & THE JUICE,2.5,18,$$,,False,"Juice Bars & Smoothies, Coffee & Tea, Sandwiches","juicebars, coffee, sandwiches",25.781014468894,-80.195985570639,US,FL,Miami,33136
3HDI38FeC3B9rGFj3NxV4w,J9 Smoothie Bar and Grill,5.0,6,,"['delivery', 'pickup']",False,"Juice Bars & Smoothies, Salad, Wraps","juicebars, salad, wraps",25.7819493347504,-80.1995375007391,US,FL,Miami,33136
t2sMQyGQgWbWY0uzdTzC7w,Michelle's Cafe,1.5,4,,,False,"Cafes, Cuban","cafes, cuban",25.7785559015528,-80.1973433163623,US,FL,Miami,33128
gr1H3g2FuAiZG-aj_Zm7PA,Hungry Bear Sub Shop,4.5,100,$,['delivery'],False,Sandwiches,sandwiches,25.80596,-80.3127,US,FL,Miami,33122
ZnYWNIcoUQyaADiOmJMLdQ,Cafe72,4.5,63,,"['delivery', 'pickup']",False,"Cuban, Breakfast & Brunch, American (Traditional)","cuban, breakfast_brunch, tradamerican",25.80982,-80.31373,US,FL,Miami,33166
jUY_N03OoC9vGymMiCOkPQ,Cilantros Cafetería,4.0,99,$,"['delivery', 'pickup']",False,Cuban,cuban,25.8078755992339,-80.292895808816,US,FL,Miami,33166
cfMsoxL4ysyqdNQxhyd6eA,El Pollo Inka,4.0,336,$$,"['delivery', 'pickup']",False,"Latin American, Peruvian, Seafood","latin, peruvian, seafood",25.810136,-80.315656,US,FL,Miami,33166
QHbx2CUBXg7WFPHn4f_uBg,Francisca Restaurant Miami,4.0,7,,,False,Latin American,latin,25.796188,-80.323828,US,FL,Miami,33122
DGpCGSY4Kvd8b6DyEz3R8A,El Rinconcito Latino,4.0,156,$$,['delivery'],False,"Latin American, Cuban","latin, cuban",25.8101070003343,-80.3164357784348,US,FL,Miami,33166
Rsyk_Rf0j8s8VaDBAbZ28g,El Toro Loco Churrascaria - Doral,4.0,28,$$,"['delivery', 'pickup']",False,"Brazilian, Steakhouses, Food Trucks","brazilian, steak, foodtrucks",25.80982,-80.31373,US,FL,Miami,33166
KEabDoh5Pa2b4P4fb00mUg,Hong Kong City of Miami,3.0,28,$,"['delivery', 'pickup']",False,Chinese,chinese,25.8103504,-80.3160782,US,FL,Miami,33166
25j_aJ_7cqgKLwZLOCVW1A,Xochimex Cantina Grill,4.0,106,$,"['delivery', 'pickup']",False,"Tex-Mex, Mexican","tex-mex, mexican",25.7781024,-80.2897029,US,FL,Miami,33126
vz9OvE0MArYjxY_VSEhkUg,Pizzillo Pizza Pasta,4.0,18,,"['delivery', 'pickup']",False,"Pizza, Italian","pizza, italian",25.8103435,-80.3156605,US,FL,Miami,33166
bplmPuWsj805YyR0C0x8Pw,Totoritas Restaurant,4.0,90,$$,"['delivery', 'pickup']",False,Peruvian,peruvian,25.81036,-80.31592,US,FL,Miami,33166
miaqTcYBscknENcG5PTLTg,Tierra Bomba,3.5,40,$$,"['delivery', 'pickup']",False,"Colombian, Imported Food","colombian, importedfood",25.8064007732538,-80.3126284173721,US,FL,Miami,33122
QH9SvFBF70DyWd_xqXXy7A,Red Ginger aboard Oceania Marina,5.0,6,,,False,Asian Fusion,asianfusion,25.8032741546631,-80.3315277099609,US,FL,Miami,33122
QnTM9zT7X1Ysptxz7mPoMg,Mr Baguette,4.5,103,$,"['delivery', 'pickup']",False,"Juice Bars & Smoothies, Desserts, Cafes","juicebars, desserts, cafes",25.8190639224123,-80.313182552088,US,FL,Miami,33166
WR9sa1QJkgjJe9G_PeuzNA,Prime 36 Restaurant,4.5,3,,"['delivery', 'pickup']",False,"American (Traditional), Bars, Pasta Shops","tradamerican, bars, pastashops",25.807927,-80.295792,US,FL,Miami,33166
xHftnNSsWkjArBp_OcLdcg,Granier Bakery,4.0,24,,['delivery'],False,"Breakfast & Brunch, Coffee & Tea, Bakeries","breakfast_brunch, coffee, bakeries",25.80827,-80.33173,US,FL,Miami,33166
_mE2M_q0bl7UP_QCZ_qLdg,Restaurante Monserrate,5.0,2,,,False,Colombian,colombian,25.8059597015381,-80.3126983642578,US,FL,Miami,33122
Dzk_O70dBXoKcIQQeaOqyw,Amor di Pasta - Blue Lagoon,4.5,271,$$,"['delivery', 'pickup']",False,Italian,italian,25.776908,-80.288655,US,FL,Miami,33126
dqylqIlTeuYHrGEYiiATwQ,Delirio Fresh Co Express CLOSED,4.0,38,$$,"['delivery', 'pickup']",False,"Salad, Juice Bars & Smoothies, Vegan","salad, juicebars, vegan",25.8095749,-80.3156156,US,FL,Miami,33166
T8CmMec0US12fusIymym3g,Bocas Grill El Original,3.5,412,$$,['pickup'],False,Latin American,latin,25.805119,-80.312648,US,FL,Miami,33122
d81mMtsfuhpRs3GLx_-4YQ,Coral Restaurant Cafeteria,3.5,9,$,['delivery'],False,"Cuban, Cafes","cuban, cafes",25.80717,-80.31679,US,FL,Miami,33122
wjTfEfdtzFZEbX6t7vC9JQ,Casa Juan Restaurant,4.0,183,$$,['delivery'],False,"Latin American, Cuban","latin, cuban",25.7781036,-80.2896741,US,FL,Miami,33126
nhXkFL6sKBuE1949A3KNEw,Port Royale Trading Company,5.0,1,,,False,Seafood,seafood,25.807168,-80.310264,US,FL,Miami,33122
Fe6qJFNeQX4L0aaU-eDIvQ,Mr & Mrs Bun,4.5,1540,$$,['pickup'],False,"Peruvian, Sandwiches, Burgers","peruvian, sandwiches, burgers",25.698155,-80.445112,US,FL,Miami,33193
WdJ_qFBtmB3KllqmyMeNQw,El Rincon Iberico Spanish Cuisine,4.5,78,,['delivery'],False,"Spanish, Tapas Bars","spanish, tapas",25.69837983,-80.445006,US,FL,Miami,33193
IpS_5T4-h71KI7liybteVQ,Canton Star,4.0,99,$$,['delivery'],False,Chinese,chinese,25.6975999419114,-80.4472771362457,US,FL,Miami,33193
-3YZxfPp5asNj8Xa-4dRtA,El Palacio De Los Frijoles kendall,4.5,72,$$,"['delivery', 'pickup']",False,Colombian,colombian,25.698554,-80.444812,US,FL,Miami,33193
szZhubvIWLELG-R8p-LHeg,Inari Sushi Fusion,4.5,408,$$,"['delivery', 'pickup']",False,"Sushi Bars, Japanese, Peruvian","sushi, japanese, peruvian",25.6987361,-80.4456061,US,FL,Miami,33193
Tsg1r1DyJtn4CZ3jm2lLUA,Smoothie Spot,4.0,288,$,"['delivery', 'pickup']",False,"Salad, Juice Bars & Smoothies","salad, juicebars",25.6976695820275,-80.4470294785736,US,FL,Miami,33193
7EufRrbW7htENUJYyCP7rw,Fritanga Montelimar,3.5,49,$,['delivery'],False,"Latin American, Nicaraguan, Cafeteria","latin, nicaraguan, cafeteria",25.6986488,-80.4481619,US,FL,Miami,33193
5KLKJGA6GPaEtANFvnbW8Q,Ricotta Collection,5.0,2,,,False,"Italian, Food Trucks, Caterers","italian, foodtrucks, catering",25.78816,-80.3229,US,FL,Miami,33106
H0C52nynygcvjNzZy5Y_-A,Pasapoga Restaurant,3.0,139,$$,['delivery'],False,Cuban,cuban,25.7004387370354,-80.44702,US,FL,Miami,33193
cjHwz37hWzmZpCK5QYhE1A,El Rinconcito Latino,3.5,66,$$,['delivery'],False,"Cuban, Latin American","cuban, latin",25.6985921753364,-80.4448618766102,US,FL,Miami,33193
1vyCio-QCA1fvzZBbRpCIQ,Don Luccas Gelateria,4.0,1,,['delivery'],False,"Desserts, Gelato, Gluten-Free","desserts, gelato, gluten_free",25.6981453,-80.4456015,US,FL,Miami,33193
RKyAeKy8nAQcnEoQUZYbqQ,Andy's Pizzeria,4.5,64,$,"['delivery', 'pickup']",False,"Pizza, Pasta Shops, Sandwiches","pizza, pastashops, sandwiches",25.699868,-80.448395,US,FL,Miami,33193
5fb1qyV-16DXVFArUlIZ9w,Taco Bell,2.5,15,$,"['delivery', 'pickup']",False,"Mexican, Fast Food","mexican, hotdogs",25.7001249177653,-80.447107,US,FL,Miami,33196
221XmPTXg76y11mVztPhVw,Subway,3.5,10,$,"['delivery', 'pickup']",False,Sandwiches,sandwiches,25.69921,-80.44814,US,FL,Miami,33193
ix8ifP1jQM9ektdVAs19sQ,Crazy About You,4.0,1658,$$,"['restaurant_reservation', 'delivery']",False,"Mediterranean, Italian, Spanish","mediterranean, italian, spanish",25.7620078715623,-80.1889463275432,US,FL,Miami,33131
1h8-r9cLeXxW99HhlRUnlA,CVI.CHE 105,4.5,3899,$$,['delivery'],False,"Peruvian, Seafood","peruvian, seafood",25.775383,-80.1884004,US,FL,Miami,33132
Y6E0G3ATW4597V4jl1uxyA,Zuma,4.0,1354,$$$$,"['delivery', 'pickup']",False,"Japanese, Sushi Bars","japanese, sushi",25.7705248376992,-80.189613327384,US,FL,Miami,33131
n6xaLebNjh8sYiYh89gdEQ,Komodo,4.0,1255,$$$,['delivery'],False,"Asian Fusion, Lounges, Cocktail Bars","asianfusion, lounges, cocktailbars",25.7653468682438,-80.1906713264588,US,FL,Miami,33131
-b4dNNCCsDMtidBcGtlM7g,Honey Uninhibited,4.0,682,$$,"['restaurant_reservation', 'delivery', 'pickup']",False,"Breakfast & Brunch, Southern, Comfort Food","breakfast_brunch, southern, comfortfood",25.76009,-80.20047,US,FL,Miami,33129
8_cuODO8G0yuzQO_fRW5kA,Toro Toro,4.5,1043,$$$,"['delivery', 'pickup']",False,"Steakhouses, Tapas Bars, Cocktail Bars","steak, tapas, cocktailbars",25.772572,-80.185336,US,FL,Miami,33131
wehz3RMIspciHxgqGqEIcQ,Cantina La Veinte Miami,3.5,661,$$$,['delivery'],False,Mexican,mexican,25.768305,-80.188528,US,FL,Miami,33131
pBgm27MQ85T6S00So1PAKQ,Area 31,3.5,746,$$$,['delivery'],False,"Seafood, American (New), Cocktail Bars","seafood, newamerican, cocktailbars",25.7702253553012,-80.1896206576721,US,FL,Miami,33131
OH9cEHKU0FmReHkAmUzG2Q,Pollos Y Jarras,4.5,775,$$,"['delivery', 'pickup']",False,Peruvian,peruvian,25.775702,-80.188376,US,FL,Miami,33132
6zj0usvr1HgvFUP26Npawg,Chick-fil-A,3.0,8,,,False,Fast Food,hotdogs,25.779125,-80.195799,US,FL,Miami,33136
Ifzu7FxLMyeMFdx2xwF7GQ,Balloo Restaurant,4.5,45,,"['delivery', 'pickup']",False,"Caribbean, Asian Fusion","caribbean, asianfusion",25.77389833,-80.19004667,US,FL,Miami,33131
pCWEUfkRhDyPvkaxyZpOyA,The Deck at Island Gardens,4.0,147,$$$$,"['delivery', 'pickup']",False,"Venues & Event Spaces, Beer Gardens, Seafood","venues, beergardens, seafood",25.784239,-80.177914,US,FL,Miami,33132
FU8AJCcbnWlokd5GCDYK8g,Novikov Miami,4.0,302,$$$,['delivery'],False,"Japanese, Seafood Markets, Bars","japanese, seafoodmarkets, bars",25.771295,-80.187657,US,FL,Miami,33131
_tMXqt6aeU_UajCi-Gov1Q,Black Market Miami,4.0,203,$$,"['delivery', 'pickup']",False,"Sports Bars, American (New), Venues & Event Spaces","sportsbars, newamerican, venues",25.7732,-80.19053,US,FL,Miami,33131
WbkCSvcHdZJwDaleMLCHrA,The Capital Grille,4.0,684,$$$,,False,"Steakhouses, Seafood, Wine Bars","steak, seafood, wine_bars",25.7695309499124,-80.1901772747993,US,FL,Miami,33131
2LEEl6l-OzoWAelwnKqHwA,Jar + Fork,4.5,292,$$,"['delivery', 'pickup']",False,"Juice Bars & Smoothies, Comfort Food","juicebars, comfortfood",25.774166,-80.189215,US,FL,Miami,33131
JUofvuctiEDWfL6M5yE-1A,Nusr-Et Steakhouse,3.0,653,$$$$,,False,Steakhouses,steak,25.764068,-80.190902,US,FL,Miami,33131
arvsiHTcyJzge4wxmQiaXw,La Mar by Gaston Acurio,4.0,746,$$$,,False,Peruvian,peruvian,25.7654407159876,-80.1852026674939,US,FL,Miami,33131
Gf4_G1-yiX9iwHM138ZWFw,The Cocinita Miami,4.5,36,$$,"['delivery', 'pickup']",False,"Vegan, Latin American, Vegetarian","vegan, latin, vegetarian",25.768476,-80.190967,US,FL,Miami,33131
AKsrhl2zUl9Qo8aMP2S8Eg,Joia Beach,3.5,61,,,False,Modern European,modern_european,25.787374046226564,-80.17714842275393,US,FL,Miami,33132
qJBMlcz1GGZx-RMDL_PD1Q,The River Oyster Bar,4.0,771,$$$,"['delivery', 'pickup']",False,"Seafood, Latin American","seafood, latin",25.76766,-80.19197,US,FL,Miami,33131
Obt7Njta79-1CNtNwhNXiw,Bunbury,4.5,532,$$,"['restaurant_reservation', 'delivery', 'pickup']",False,"Argentine, Wine Bars","argentine, wine_bars",25.788458,-80.193363,US,FL,Miami,33132
aIQK1sw9Prr-KdUu717vRw,Dolores But You Can Call Me Lolita,4.0,1130,$$,"['restaurant_reservation', 'delivery']",False,"American (New), Cocktail Bars, Tapas Bars","newamerican, cocktailbars, tapas",25.76427,-80.19354,US,FL,Miami,33130
ys97r_tdXZy1o8lwx3jl3A,Truluck’s Ocean’s Finest Seafood and Crab,4.5,1029,$$$,['delivery'],False,"Seafood, Steakhouses","seafood, steak",25.7666322556485,-80.1901618736801,US,FL,Miami,33131
rbJQfGK0_7ojP5EWELdt6Q,Poke OG,5.0,27,,"['delivery', 'pickup']",False,"Poke, Hawaiian","poke, hawaiian",25.77359,-80.19075,US,FL,Miami,33131
Qzk4ux58Aw58IzAmXewEGA,NAOE,4.5,340,$$$$,['restaurant_reservation'],False,"Japanese, Sushi Bars, Seafood","japanese, sushi, seafood",25.7678418536709,-80.1856550574303,US,FL,Miami,33131
zET3OAlPKLVsVlmSLq5idQ,Seaspice Brasserie & Lounge,3.0,929,$$$,,False,American (New),newamerican,25.7777458026811,-80.204677935582,US,FL,Miami,33128
4Wa7TnTtgQ-Bm3Qrd5z5Jg,Graziano's in Brickell,4.0,219,$$,"['restaurant_reservation', 'delivery', 'pickup']",False,"Argentine, Wine Bars, Steakhouses","argentine, wine_bars, steak",25.76739,-80.197,US,FL,Miami,33130
b7b4OC6qPfi1mQcmYoJPcA,Esotico Miami,4.0,117,$$,"['delivery', 'pickup']",False,"Cocktail Bars, Hawaiian","cocktailbars, hawaiian",25.7907233,-80.1924596,US,FL,Miami,33132
UfptoMdfazZVdN3mJMe7gw,Il Gabbiano,4.0,627,$$$,['delivery'],False,"Italian, Wine Bars","italian, wine_bars",25.771643,-80.185218,US,FL,Miami,33131
-m9d_aXhlWleiI0K0tiWNg,Cipriani Downtown Miami,3.0,289,$$$$,"['delivery', 'pickup']",False,Italian,italian,25.769079,-80.188602,US,FL,Miami,33131
C0oehMtQSl_JOKWIX6ORzQ,Fratelli Milano,4.5,1090,$$,"['delivery', 'pickup']",False,"Italian, Pizza","italian, pizza",25.7734433,-80.1898863,US,FL,Miami,33131
UDf0lQ2QimNkhvrwgyIwmg,Kiki On The River,3.0,556,$$$,['delivery'],False,"Greek, Mediterranean","greek, mediterranean",25.77778,-80.20499,US,FL,Miami,33128
_-_NeXw_JbBTIOEZKItwlw,Moxie's Grill & Bar,4.5,120,$$,['delivery'],False,"Lounges, Cocktail Bars, American (New)","lounges, cocktailbars, newamerican",25.76523,-80.1935,US,FL,Miami,33130
eqE6N8xFYBFDeKfBu621mA,Meraki Greek Bistro,4.0,530,$$,"['delivery', 'pickup']",False,Greek,greek,25.772929,-80.192028,US,FL,Miami,33131
t4bR5iWxEo9EE_4Dft5Lbw,Dimitrios Mediterranean Cuisine,4.5,31,,"['restaurant_reservation', 'delivery', 'pickup']",False,"Mediterranean, Lebanese","mediterranean, lebanese",25.7601195,-80.1926032,US,FL,Miami,33131
4utRX5zunli5B3HZT2-blw,La Sandwicherie Brickell,4.0,614,$,['delivery'],False,"Sandwiches, French, Juice Bars & Smoothies","sandwiches, french, juicebars",25.76607,-80.19407,US,FL,Miami,33130
cTwcYWUUeaterok391v3Vg,El Primo Red Tacos,3.5,23,,,False,Tacos,tacos,25.774023,-80.194051,US,FL,Miami,33130
wTGfOdzATz-Nb_RB5H3Ctw,Caña Restaurant,4.5,81,$$,"['restaurant_reservation', 'delivery', 'pickup']",False,"Cuban, Cocktail Bars, Seafood","cuban, cocktailbars, seafood",25.762879,-80.190504,US,FL,Miami,33131
Ifh2cDofbHDcOT2_XYsBTA,Jamaica Corner,4.5,23,,"['delivery', 'pickup']",False,Caribbean,caribbean,25.7738031529053,-80.1923448219896,US,FL,Miami,33131
S13nGG2lHaIPc0zAc-iDJQ,Over Under,4.5,27,,,False,"Burgers, Cocktail Bars","burgers, cocktailbars",25.7743301,-80.1908691,US,FL,Miami,33131
b8_XgMhKSPl__dRgY-m6Ig,Station 28,4.5,179,$,"['delivery', 'pickup']",False,"Sandwiches, Peruvian, Burgers","sandwiches, peruvian, burgers",25.77267,-80.192249,US,FL,Miami,33131
yQjAJfAe4sCtvFmRnOJoDw,Vero,4.5,439,$$,"['restaurant_reservation', 'pickup']",False,"Italian, Pizza, Wineries","italian, pizza, wineries",25.7732471137303,-80.1920659170162,US,FL,Miami,33131
eW-7ByJCeVgMT1_Ty0zjTQ,Cajun Boil,4.5,58,,['delivery'],False,"Cajun/Creole, Seafood, Asian Fusion","cajun, seafood, asianfusion",25.767706,-80.196026,US,FL,Miami,33130
UeT8Rsasz6OEJVlzuSn1EQ,El Cielo by Juan Manuel Barrientos,4.0,171,$$$$,,False,"Colombian, American (New), Desserts","colombian, newamerican, desserts",25.769667,-80.191708,US,FL,Miami,33131
TqX0y-R8q7QA3tGER0z2YQ,Riverside Miami,3.0,44,,,False,"Music Venues, Mediterranean, Mexican","musicvenues, mediterranean, mexican",25.769034,-80.192851,US,FL,Miami,33131
O4oEq4FGo_yXzRg1nqTFaw,Myron Mixon’s Pitmaster Barbeque,4.0,37,,,False,"Barbeque, Bars, Sandwiches","bbq, bars, sandwiches",25.764636,-80.190813,US,FL,Miami,33131
BlZqSfhGYf4gdQlMkKXU4A,North Italia,4.5,399,$$,['delivery'],False,Italian,italian,25.765223,-80.193529,US,FL,Miami,33130
j0EWl5E8NyaRY-jiWlB49Q,Colada Cuban Cafe & Grill,4.5,28,,,False,"Cuban, Cafes, American (Traditional)","cuban, cafes, tradamerican",25.776107,-80.188185,US,FL,Miami,33132
plK-XR8geolnNvPL7YGSHQ,BurgerFi,3.0,6,,,False,"American (New), Burgers, Hot Dogs","newamerican, burgers, hotdog",25.79344,-80.38665,US,FL,Miami,33182
8bb4-60Lm_iJjnLfh3w7aw,Mr Cachapa,4.0,12,,,False,"Venezuelan, Food Trucks","venezuelan, foodtrucks",25.7873554,-80.3712151,US,FL,Miami,33172
o0dH_ndlSsj61GlJCT4ymg,Metropol Restaurant,4.5,106,$$,['delivery'],False,"Puerto Rican, Cuban","puertorican, cuban",25.7871210939807,-80.3808380663395,US,FL,Miami,33172
C7bOO9QUGCDFIw4QeufkTg,Texas de Brazil,4.0,364,$$$,['delivery'],False,"Steakhouses, Brazilian, Venues & Event Spaces","steak, brazilian, venues",25.786315,-80.381074,US,FL,Miami,33172
94ePCZEhAXCRt8kPi8fMeQ,Vegan & Juice,5.0,314,$,['delivery'],False,"Juice Bars & Smoothies, Vegan","juicebars, vegan",25.79016,-80.3726,US,FL,Miami,33172
Fezhw49AcAD0F0oCPF_Trw,The Cheesecake Factory,3.5,330,$$,['restaurant_reservation'],False,"Desserts, American (Traditional)","desserts, tradamerican",25.788167,-80.38029,US,FL,Miami,33172
4tLgbgkwU1Md5c0HJflOlA,Bar Flamenco,4.0,5,,['delivery'],False,"Bars, Tapas/Small Plates, Latin American","bars, tapasmallplates, latin",25.7893542490913,-80.3758487851814,US,FL,Miami,33172
r9dnZkx3BAoY4wn34zYBpw,El Gran Inka,4.0,84,$$,"['pickup', 'delivery']",False,"Peruvian, Bars","peruvian, bars",25.787178,-80.38116,US,FL,Miami,33172
faDrNC28d56XBZqeneYwSg,El Porton de la Flaca,4.5,77,$$,"['pickup', 'delivery']",False,"Latin American, Coffee & Tea","latin, coffee",25.787303,-80.36975,US,FL,Miami,33172
M8s6ehFt3SFbtK3oGg9M6w,Fuddruckers,3.5,193,$,['delivery'],False,"American (Traditional), Burgers","tradamerican, burgers",25.7912785883031,-80.3683307566275,US,FL,Miami,33172
-GAj9EfGNJMiIDgg0QBuEg,TGI Fridays,2.0,216,$$,['delivery'],False,American (Traditional),tradamerican,25.7861319165094,-80.3807070644181,US,FL,Miami,33172
Raw7ul3L6hFCrHFknP5CWw,Pizza Mia Gourmet,4.5,53,,"['pickup', 'delivery']",False,"Pizza, Wine Bars, Italian","pizza, wine_bars, italian",25.793846,-80.369446,US,FL,Miami,33172
GYf_9jZ2TM2LCBNKLPABCA,Charcoals Latin Grill,3.5,145,$$,['delivery'],False,Latin American,latin,25.786721,-80.381289,US,FL,Miami,33172
bgX8k6a-DEmYsCqg5pOgtQ,Milanezza,4.0,108,$$,"['pickup', 'delivery']",False,"Argentine, Bars, Italian","argentine, bars, italian",25.786633,-80.382473,US,FL,Miami,33172
5NcOmzpaEwQVcgArWO1anQ,P.F. Chang's,3.0,276,$$,"['pickup', 'delivery']",False,"Chinese, Asian Fusion, Gluten-Free","chinese, asianfusion, gluten_free",25.7860582009148,-80.3797993941956,US,FL,Miami,33172
2hypDlMLzYIgQeEcTKJElA,Japan Inn,4.0,105,$$,"['pickup', 'delivery']",False,"Sushi Bars, Teppanyaki","sushi, teppanyaki",25.79027,-80.36992,US,FL,Miami,33172
PjL793JD05ar3WRKKzAiDw,Maracaibo Club by Charles,2.0,5,,,False,"Bars, Venezuelan","bars, venezuelan",25.7749149787693,-80.3681898305227,US,FL,Miami,33172
IGdmWO4xUXHjP6gb0oZFcQ,Pho Tastic,5.0,89,,,False,"Vietnamese, Bubble Tea, Juice Bars & Smoothies","vietnamese, bubbletea, juicebars",25.68241,-80.46375,US,FL,Miami,33196
mJiBeHFnpbGidG2DPx6s1Q,Gorditas Mexican Kitchen,4.0,161,$,,False,"Mexican, Fast Food","mexican, hotdogs",25.682488,-80.464222,US,FL,Miami,33196
SZsPgNHKJaEeX4oz_k7UkQ,Country Fruits & Juices Nursery,3.0,6,$,,False,"Juice Bars & Smoothies, Cuban","juicebars, cuban",25.650774206611544,-80.4808822361353,US,FL,Miami,33196
GemjP3-f5oc3CXU4h5i8SQ,Chicken Stack Fire Grill,3.0,30,$,"['delivery', 'pickup']",False,"Salad, Chicken Shop, Sandwiches","salad, chickenshop, sandwiches",25.6824165337522,-80.4639045000077,US,FL,Miami,33196
u6-kLFiVLkYjhJbA63odBQ,El Tamalazo,3.0,4,,,False,Cuban,cuban,25.6510335848352,-80.4816433211426,US,FL,Miami,33196
lkbiMAIPI4r3JmogDwbTGQ,Papa John's Pizza,3.5,12,$,,False,Pizza,pizza,25.6829156188135,-80.4650131846961,US,FL,Miami,33196
1EJ40yHer69KAMqcoRO2Lw,Minty Z,5.0,7,,"['delivery', 'pickup']",False,"Dim Sum, Vegan, Asian Fusion","dimsum, vegan, asianfusion",25.727764,-80.245421,US,FL,Miami,33133
kSBE7iHfiYKdyNBIoB3Bvw,The Doral Yard,4.5,36,,,False,"Bars, Music Venues, American (Traditional)","bars, musicvenues, tradamerican",25.82003,-80.33551,US,FL,Miami,33166
SQ66LPHvqbOcEdDY50XjCw,2 Korean Girls,4.5,13,,"['delivery', 'pickup']",False,Korean,korean,25.72941,-80.23996,US,FL,Miami,33133
EvZOPWLb38M0gTzTN9Z1sg,Soju Miami,4.5,75,$$,"['delivery', 'pickup', 'restaurant_reservation']",False,"Korean, Barbeque","korean, bbq",25.79989,-80.20093,US,FL,Miami,33127
25j_aJ_7cqgKLwZLOCVW1A,Xochimex Cantina Grill,4.0,106,$,"['delivery', 'pickup']",False,"Tex-Mex, Mexican","tex-mex, mexican",25.7781024,-80.2897029,US,FL,Miami,33126
Dzk_O70dBXoKcIQQeaOqyw,Amor di Pasta - Blue Lagoon,4.5,271,$$,"['delivery', 'pickup']",False,Italian,italian,25.776908,-80.288655,US,FL,Miami,33126
gr1H3g2FuAiZG-aj_Zm7PA,Hungry Bear Sub Shop,4.5,100,$,['delivery'],False,Sandwiches,sandwiches,25.80596,-80.3127,US,FL,Miami,33122
a4LjewExxqm72UJC1-Ct_Q,Monster Bite World,4.5,24,$,"['delivery', 'pickup']",False,"Food Trucks, Burgers","foodtrucks, burgers",25.8057063,-80.2633446,US,FL,Miami,33142
UXHxLN3DcDGI57uDIfCuJA,Old's Havana Cuban Bar & Cocina,4.5,1066,$$,"['delivery', 'pickup', 'restaurant_reservation']",False,"Cuban, Bars","cuban, bars",25.7655942148975,-80.2192383373502,US,FL,Miami,33135
15vmqRJwdFcGAx7g_EHvFg,Taqueria Los Potrillos,4.5,71,,['delivery'],False,Mexican,mexican,25.7790887849913,-80.2607780322433,US,FL,Miami,33126
-b4dNNCCsDMtidBcGtlM7g,Honey Uninhibited,4.0,682,$$,"['delivery', 'pickup', 'restaurant_reservation']",False,"Breakfast & Brunch, Southern, Comfort Food","breakfast_brunch, southern, comfortfood",25.76009,-80.20047,US,FL,Miami,33129
wjTfEfdtzFZEbX6t7vC9JQ,Casa Juan Restaurant,4.0,183,$$,['delivery'],False,"Latin American, Cuban","latin, cuban",25.7781036,-80.2896741,US,FL,Miami,33126
tp2F-QOuIi4GYEdEL0Q9rA,Palomilla Grill,4.0,107,$$,['delivery'],False,Cuban,cuban,25.7700729370117,-80.3073120117188,US,FL,Miami,33144
n43tjBsIHnCwwEddhLT2lA,Tacos & Tattoos,4.5,4,,"['delivery', 'pickup']",False,Mexican,mexican,25.7321,-80.31434,US,FL,Miami,33155
fPoBcqEKwUaCQkq0-FDeOg,Yip Doral,5.0,1,,,False,Dim Sum,dimsum,25.820137,-80.335762,US,FL,Miami,33166
x9AjrNAXK2H8MNeklHp9Qw,Paseo Catracho,4.5,48,$,['delivery'],False,Latin American,latin,25.778421,-80.273284,US,FL,Miami,33126
ZSYcyBaoHyLmWlU7-Sj13w,Al-Amir,5.0,358,$,['delivery'],False,Lebanese,lebanese,25.733316,-80.299111,US,FL,Miami,33155
PWCPgNrWbVFRmwEAv3mjYA,Mr Taco,4.5,20,$,,False,"Food Trucks, Tacos","foodtrucks, tacos",25.762386,-80.315113,US,FL,Miami,33144
-fCMdb5Rfc0oTOWBnW9RSA,La Rosa Restaurant,4.0,370,$$,"['pickup', 'restaurant_reservation']",False,"Cuban, Seafood, Bars","cuban, seafood, bars",25.779044,-80.262671,US,FL,Miami,33126
2eIez2Q7S8-btrCf5hXXaQ,La Granja,4.0,43,$,,False,"Peruvian, Desserts, Seafood","peruvian, desserts, seafood",25.7830846775703,-80.2637038397018,US,FL,Miami,33126
MxtjG2Oln03fQPbCkYPt5g,La Patagonia Argentina,4.0,375,$$,['delivery'],False,"Latin American, Argentine","latin, argentine",25.778542,-80.274011,US,FL,Miami,33126
bplmPuWsj805YyR0C0x8Pw,Totoritas Restaurant,4.0,90,$$,"['delivery', 'pickup']",False,Peruvian,peruvian,25.81036,-80.31592,US,FL,Miami,33166
cW-AoEKFCJxke0wHtb6CFA,Il Forno Ristorante,4.0,295,$$,"['pickup', 'restaurant_reservation']",False,Italian,italian,25.796718,-80.347661,US,FL,Miami,33172
zET3OAlPKLVsVlmSLq5idQ,Seaspice Brasserie & Lounge,3.0,929,$$$,,False,American (New),newamerican,25.7777458026811,-80.204677935582,US,FL,Miami,33128
ZnYWNIcoUQyaADiOmJMLdQ,Cafe72,4.5,63,,"['delivery', 'pickup']",False,"Cuban, Breakfast & Brunch, American (Traditional)","cuban, breakfast_brunch, tradamerican",25.80982,-80.31373,US,FL,Miami,33166
rQn58bmvGksSXToxsX5n6Q,World Famous House of Mac,4.5,981,$$,"['delivery', 'pickup']",False,"Soul Food, American (New), Chicken Wings","soulfood, newamerican, chicken_wings",25.796531,-80.198716,US,FL,Miami,33127
QAPNSxiFhcNSdmjM0dD8Tw,Lung Yai Thai Tapas,4.0,1334,$$,"['delivery', 'pickup']",False,"Tapas/Small Plates, Thai","tapasmallplates, thai",25.76595,-80.22329,US,FL,Miami,33135
JnWk31PtaDGD3JfO9eyVkw,Impressions,5.0,6,,,False,Cafes,cafes,25.7783409549632,-80.3094483911991,US,FL,Miami,33126
ewAnjtcGnOyC4IO41GBh8Q,Burger Beast Burger Joint,4.5,14,$,,False,Burgers,burgers,25.7325196054694,-80.339264832437,US,FL,Miami,33165
CbEQK2S7axhORTDX0id5FQ,La Carreta Restaurant,4.0,559,$$,,False,Cuban,cuban,25.7976855022012,-80.2814967557788,US,FL,Miami,33125
CfGmsF4tOKBl70sZJjVj-g,The Gramercy Miami,4.0,24,,,False,Brasseries,brasseries,25.75028,-80.2561,US,FL,Miami,33134
1EJ40yHer69KAMqcoRO2Lw,Minty Z,5.0,7,,"['pickup', 'delivery']",False,"Dim Sum, Vegan, Asian Fusion","dimsum, vegan, asianfusion",25.727764,-80.245421,US,FL,Miami,33133
SQ66LPHvqbOcEdDY50XjCw,2 Korean Girls,4.5,13,,"['pickup', 'delivery']",False,Korean,korean,25.72941,-80.23996,US,FL,Miami,33133
ryqz_4PAUMAi_FBzY02wng,Sweetgreen,5.0,12,,"['pickup', 'delivery']",False,"Vegetarian, Salad","vegetarian, salad",25.751366,-80.25734729999999,US,FL,Miami,33134
_pKYGqG0FP_hzVwg7Hvs6w,El Porteño,4.0,9,,['delivery'],False,"Argentine, Wine Bars, Steakhouses","argentine, wine_bars, steak",25.74981,-80.26025,US,FL,Miami,33134
-vIOvnJhvEfWfUZeobqGqQ,Majestic Portuguese Bakehouse,4.5,41,,['delivery'],False,"Portuguese, Bakeries, Desserts","portuguese, bakeries, desserts",25.749701,-80.2486254,US,FL,Miami,33145
11CNGukK207Mnz34FObMlA,Planta Queen,4.5,39,,,False,"Sushi Bars, Asian Fusion, Vegetarian","sushi, asianfusion, vegetarian",25.728975,-80.241974,US,FL,Miami,33133
MG7bL8NPgOVWnd9T2Fkkag,Maia House,5.0,6,,,False,"Mexican, Seafood, Cocktail Bars","mexican, seafood, cocktailbars",25.747709,-80.262913,US,FL,Miami,33134
NtBdy9oTCc_wqGXionh2IA,Namaste Miami,5.0,26,,"['pickup', 'delivery']",False,Indian,indpak,25.754562,-80.259166,US,FL,Miami,33134
qVb7XeWqLaSqUVEmDznVWQ,Gustave,5.0,1,,"['pickup', 'delivery']",False,"French, Breakfast & Brunch","french, breakfast_brunch",25.749033,-80.262017,US,FL,Miami,33134
YMruiRKiR9JaRWbXMeud9w,Red Carpet Italian Restaurant,4.5,394,$$,"['pickup', 'delivery', 'restaurant_reservation']",False,Italian,italian,25.764462014499,-80.2513395226845,US,FL,Miami,33135
LnfOdmoc-2FnboWRnvyVzQ,Juan Café,4.0,12,$,['delivery'],False,"Cafes, Colombian","cafes, colombian",25.750144,-80.26039,US,FL,Miami,33134
umCkr3kwKD-0b58S77o4wQ,Punto Criollo,4.5,4,,"['pickup', 'delivery']",False,Venezuelan,venezuelan,25.748366,-80.260046,US,FL,Miami,33134
UXHxLN3DcDGI57uDIfCuJA,Old's Havana Cuban Bar & Cocina,4.5,1066,$$,"['delivery', 'restaurant_reservation', 'pickup']",False,"Cuban, Bars","cuban, bars",25.7655942148975,-80.2192383373502,US,FL,Miami,33135
gmDna9f57vWTlSrdrEuVEg,Sanguich De Miami,4.5,524,$$,['delivery'],False,"Cuban, Sandwiches","cuban, sandwiches",25.7656049,-80.2285903,US,FL,Miami,33135
QAPNSxiFhcNSdmjM0dD8Tw,Lung Yai Thai Tapas,4.0,1334,$$,"['delivery', 'pickup']",False,"Tapas/Small Plates, Thai","tapasmallplates, thai",25.76595,-80.22329,US,FL,Miami,33135
hZm7TunlrksQbgS0ssXbUg,Versailles Restaurant,4.0,4775,$$,,False,"Cuban, Coffee & Tea, Latin American","cuban, coffee, latin",25.7650962116388,-80.2527339189549,US,FL,Miami,33135
Jq8uZvtxcDulH_eYRav8dw,Hijole Taqueria,4.5,38,,"['delivery', 'pickup']",False,Mexican,mexican,25.7796051,-80.2305908,US,FL,Miami,33125
zGf5kkYEU01NQ04DRYVPNQ,Doce Provisions,4.5,694,$$,"['delivery', 'pickup']",False,"Cuban, Latin American, Tapas/Small Plates","cuban, latin, tapasmallplates",25.767862,-80.214191,US,FL,Miami,33130
9PEF_qX-3FU4iMmKgk98eA,Taqueria Viva México,4.5,446,$,"['delivery', 'pickup']",False,Mexican,mexican,25.764957,-80.237235,US,FL,Miami,33135
LAGUcnPAa8ByFqq7J4WNjQ,La Camaronera Seafood Joint & Fish Market,4.0,821,$$,"['delivery', 'pickup']",False,"Seafood, Seafood Markets, Food Stands","seafood, seafoodmarkets, foodstands",25.7725377,-80.2277893,US,FL,Miami,33135
OwF4aaSHwwhLRYmx270qoQ,Tacos El Carnal,4.0,235,$,"['delivery', 'pickup']",False,Mexican,mexican,25.7725942507471,-80.2383141964674,US,FL,Miami,33135
4JHfdpdUKUi2lygKWTMCYA,Sala'o Cuban Restaurant & Bar,4.0,141,$$,"['delivery', 'restaurant_reservation', 'pickup']",False,"Seafood, Cuban, Bars","seafood, cuban, bars",25.76542546,-80.2215707,US,FL,Miami,33135
fV6YXmRerkHKARygmuaM6A,Mofongo,4.0,362,$$,"['delivery', 'pickup']",False,"Puerto Rican, Latin American","puertorican, latin",25.7655645528436,-80.2213279352882,US,FL,Miami,33135
glR7sMvBkT8_Hcq5Mrl0KA,Mi Rinconcito Mexicano,4.0,784,$,['delivery'],False,Tacos,tacos,25.76579,-80.22789,US,FL,Miami,33135
15vmqRJwdFcGAx7g_EHvFg,Taqueria Los Potrillos,4.5,71,,['delivery'],False,Mexican,mexican,25.7790887849913,-80.2607780322433,US,FL,Miami,33126
2eIez2Q7S8-btrCf5hXXaQ,La Granja,4.0,43,$,,False,"Peruvian, Desserts, Seafood","peruvian, desserts, seafood",25.7830846775703,-80.2637038397018,US,FL,Miami,33126
YMruiRKiR9JaRWbXMeud9w,Red Carpet Italian Restaurant,4.5,394,$$,"['delivery', 'restaurant_reservation', 'pickup']",False,Italian,italian,25.764462014499,-80.2513395226845,US,FL,Miami,33135
fSlq3qv5rUTXiz6oS8h81Q,Tacos El Paso,4.5,19,$,,False,Mexican,mexican,25.7973340700547,-80.2316986612317,US,FL,Miami,33142
axVfXDhaOsVMOnHNLeHgQw,Taqueria Los Chilangos,4.5,62,$,"['delivery', 'pickup']",False,"Food Trucks, Mexican","foodtrucks, mexican",25.7797243009507,-80.2246996387839,US,FL,Miami,33125
J2vJdu0YSTIhS3Bet39lOw,Ball & Chain,4.0,1010,$$,"['delivery', 'pickup']",False,"Music Venues, Tapas/Small Plates, Cocktail Bars","musicvenues, tapasmallplates, cocktailbars",25.7658393,-80.2198453,US,FL,Miami,33135
Fri7JhawKb09bKepStcTBw,Yambo Restaurant,3.5,353,$,"['delivery', 'pickup']",False,"Latin American, Nicaraguan","latin, nicaraguan",25.7725542480094,-80.2223160649429,US,FL,Miami,33135
Uu8NSOTTsI4iCyjwGX_iJg,Fritanga Cana Brava,4.5,193,$,"['delivery', 'pickup']",False,"Latin American, Nicaraguan","latin, nicaraguan",25.77976,-80.24067,US,FL,Miami,33125
QzSC5s0InHO_QLLNNcdEyw,El Cristo Restaurant & Catering,4.0,455,$$,"['delivery', 'pickup']",False,Cuban,cuban,25.765947,-80.220382,US,FL,Miami,33135
GkTr3rBRRylDsDt1cf7Zwg,El Exquisito,4.0,562,$$,['delivery'],False,Cuban,cuban,25.7655732,-80.2197048,US,FL,Miami,33135
3DU2K8PYwLK8ZwppkXsa8Q,8 Burger,4.0,43,,"['delivery', 'pickup']",False,Burgers,burgers,25.76593,-80.22067,US,FL,Miami,33135
Wn-JqnBJtX0_jF0PDnB51A,Mi Ranchito,5.0,6,,['delivery'],False,Salvadoran,salvadoran,25.77299,-80.2278,US,FL,Miami,33135
L3mNcA3d_sst91AUhh4Nvg,Salmon & Salmon Restaurant,3.5,143,$$,['delivery'],False,"Seafood, Peruvian","seafood, peruvian",25.77974,-80.24221,US,FL,Miami,33125
3dkFe_T4SE4YbafToWdFnA,Dos Alas Kitchen,5.0,33,,"['delivery', 'pickup']",False,Puerto Rican,puertorican,25.7652931740282,-80.2328304201365,US,FL,Miami,33135
a4LjewExxqm72UJC1-Ct_Q,Monster Bite World,4.5,24,$,"['delivery', 'pickup']",False,"Food Trucks, Burgers","foodtrucks, burgers",25.8057063,-80.2633446,US,FL,Miami,33142
yoqNKeW5kj9flZoI211v5w,Pinolandia,4.0,244,$,['delivery'],False,"Latin American, Nicaraguan","latin, nicaraguan",25.77476,-80.2144299,US,FL,Miami,33128
rMsBXqA7ougRfE96dSa8Pg,El Atlakat,4.0,57,$$,['delivery'],False,Latin American,latin,25.779788,-80.232673,US,FL,Miami,33125
WnHo6VJECj9iSYKoF05GZg,El Rey De Las Fritas,4.0,390,$,,False,"Cuban, Burgers, Sandwiches","cuban, burgers, sandwiches",25.7656964,-80.2252198,US,FL,Miami,33135
IGRrxE67NkYm3GnegZ3YWQ,Catch Of The Day,3.5,462,$$,['delivery'],False,"Seafood, Live/Raw Food, Sports Bars","seafood, raw_food, sportsbars",25.78224,-80.26442,US,FL,Miami,33126
Kr3md5b1JXF_JyGWBpUZxQ,Pizzaiola,5.0,18,,['delivery'],False,Pizza,pizza,25.771249,-80.2326439,US,FL,Miami,33135
AeN0KjbQUqYwlrhqLBIxQQ,Casa Juancho ,3.5,288,$$$,['delivery'],False,"Spanish, Basque","spanish, basque",25.76491,-80.23579,US,FL,Miami,33135
zs8VYioDLvxqsihvr-Ijzg,El Santo Taqueria,3.5,170,$$,"['delivery', 'pickup']",False,Tacos,tacos,25.7654,-80.22117,US,FL,Miami,33135
tWibx0GMZDPoLwSd4VrsDA,The Cheese Stands Alone,4.5,7,,,False,American (New),newamerican,25.76576,-80.22827,US,FL,Miami,33135
s41VXOKti0kAtCmSK16DiQ,Martha's Courthouse  Cafe,4.0,6,$,,False,Colombian,colombian,25.80514,-80.240501,US,FL,Miami,33142
YtgRp7DvOQl1YRYaS7GjFA,Nueva San Salvador II,3.5,5,,['delivery'],False,Restaurants,restaurants,25.79406,-80.23813,US,FL,Miami,33142
-fCMdb5Rfc0oTOWBnW9RSA,La Rosa Restaurant,4.0,370,$$,"['restaurant_reservation', 'pickup']",False,"Cuban, Seafood, Bars","cuban, seafood, bars",25.779044,-80.262671,US,FL,Miami,33126
R_3tn6IwHmONJd_ERQuqsw,Leku,4.5,21,,,False,"Basque, Spanish","basque, spanish",25.798704,-80.214271,US,FL,Miami,33127
bNwt3oViU_Ul4w14i0n_Mw,El Chalecito,5.0,4,,['delivery'],False,Latin American,latin,25.7727704,-80.2291064,US,FL,Miami,33135
VdC2WptW8utLnJX89yPw4A,Edukos Beer House,4.5,192,$$,"['delivery', 'pickup']",False,"Gastropubs, Beer Bar, Burgers","gastropubs, beerbar, burgers",25.77349,-80.22314,US,FL,Miami,33135
Gmc2n85rsCNlB590Pqzttw,Ranchito Mi Peru,3.5,18,$$,['delivery'],False,"Peruvian, Latin American","peruvian, latin",25.7953472,-80.2326096,US,FL,Miami,33142
gWeoN0eDy-tt05a9503jZg,Hometown Bar-B-Que,4.0,353,$$,"['delivery', 'pickup']",False,"Barbeque, Beer Bar, Cocktail Bars","bbq, beerbar, cocktailbars",25.797445333,-80.215986833,US,FL,Miami,33142
8a7uqU3GSQtiuNlmrz5b9w,New Canton Chinese Restaurant,4.0,26,$$,['delivery'],False,Chinese,chinese,25.765884,-80.225287,US,FL,Miami,33135
xhbq-jzRflmpxrcrCY5xGQ,Taqueria Los Dos Amigos 2,4.5,43,,"['delivery', 'pickup']",False,Mexican,mexican,25.805455,-80.247961,US,FL,Miami,33142
f4ucXoUdsxnmBrVs0-vHEA,Jacalito Taqueria Mexicana,4.0,537,$$,"['delivery', 'pickup']",False,Mexican,mexican,25.7717977,-80.2539922,US,FL,Miami,33135
AN5NNr-TBBavva4EVb_uDw,Chop Suey International Restaurant,4.0,76,$$,"['delivery', 'pickup']",False,Chinese,chinese,25.77155,-80.2394599,US,FL,Miami,33135
1EJ40yHer69KAMqcoRO2Lw,Minty Z,5.0,7,,"['pickup', 'delivery']",False,"Dim Sum, Vegan, Asian Fusion","dimsum, vegan, asianfusion",25.727764,-80.245421,US,FL,Miami,33133
SQ66LPHvqbOcEdDY50XjCw,2 Korean Girls,4.5,13,,"['pickup', 'delivery']",False,Korean,korean,25.72941,-80.23996,US,FL,Miami,33133
25j_aJ_7cqgKLwZLOCVW1A,Xochimex Cantina Grill,4.0,106,$,"['pickup', 'delivery']",False,"Tex-Mex, Mexican","tex-mex, mexican",25.7781024,-80.2897029,US,FL,Miami,33126
kSBE7iHfiYKdyNBIoB3Bvw,The Doral Yard,4.5,36,,,False,"Bars, Music Venues, American (Traditional)","bars, musicvenues, tradamerican",25.82003,-80.33551,US,FL,Miami,33166
Dzk_O70dBXoKcIQQeaOqyw,Amor di Pasta - Blue Lagoon,4.5,271,$$,"['pickup', 'delivery']",False,Italian,italian,25.776908,-80.288655,US,FL,Miami,33126
EvZOPWLb38M0gTzTN9Z1sg,Soju Miami,4.5,75,$$,"['delivery', 'pickup', 'restaurant_reservation']",False,"Korean, Barbeque","korean, bbq",25.79989,-80.20093,US,FL,Miami,33127
15vmqRJwdFcGAx7g_EHvFg,Taqueria Los Potrillos,4.5,71,,['delivery'],False,Mexican,mexican,25.7790887849913,-80.2607780322433,US,FL,Miami,33126
wjTfEfdtzFZEbX6t7vC9JQ,Casa Juan Restaurant,4.0,183,$$,['delivery'],False,"Latin American, Cuban","latin, cuban",25.7781036,-80.2896741,US,FL,Miami,33126
ZSYcyBaoHyLmWlU7-Sj13w,Al-Amir,5.0,358,$,['delivery'],False,Lebanese,lebanese,25.733316,-80.299111,US,FL,Miami,33155
n43tjBsIHnCwwEddhLT2lA,Tacos & Tattoos,4.5,4,,"['pickup', 'delivery']",False,Mexican,mexican,25.7321,-80.31434,US,FL,Miami,33155
UXHxLN3DcDGI57uDIfCuJA,Old's Havana Cuban Bar & Cocina,4.5,1066,$$,"['delivery', 'pickup', 'restaurant_reservation']",False,"Cuban, Bars","cuban, bars",25.7655942148975,-80.2192383373502,US,FL,Miami,33135
-b4dNNCCsDMtidBcGtlM7g,Honey Uninhibited,4.0,682,$$,"['delivery', 'pickup', 'restaurant_reservation']",False,"Breakfast & Brunch, Southern, Comfort Food","breakfast_brunch, southern, comfortfood",25.76009,-80.20047,US,FL,Miami,33129
tp2F-QOuIi4GYEdEL0Q9rA,Palomilla Grill,4.0,107,$$,['delivery'],False,Cuban,cuban,25.7700729370117,-80.3073120117188,US,FL,Miami,33144
a4LjewExxqm72UJC1-Ct_Q,Monster Bite World,4.5,24,$,"['pickup', 'delivery']",False,"Food Trucks, Burgers","foodtrucks, burgers",25.8057063,-80.2633446,US,FL,Miami,33142
PWCPgNrWbVFRmwEAv3mjYA,Mr Taco,4.5,20,$,,False,"Food Trucks, Tacos","foodtrucks, tacos",25.762386,-80.315113,US,FL,Miami,33144
x9AjrNAXK2H8MNeklHp9Qw,Paseo Catracho,4.5,48,$,['delivery'],False,Latin American,latin,25.778421,-80.273284,US,FL,Miami,33126
-fCMdb5Rfc0oTOWBnW9RSA,La Rosa Restaurant,4.0,370,$$,"['pickup', 'restaurant_reservation']",False,"Cuban, Seafood, Bars","cuban, seafood, bars",25.779044,-80.262671,US,FL,Miami,33126
eo2W_Hakq3SVGUsUSBHvGw,1-800-Lucky,4.0,1249,$$,['delivery'],False,Asian Fusion,asianfusion,25.79931,-80.198,US,FL,Miami,33127
2eIez2Q7S8-btrCf5hXXaQ,La Granja,4.0,43,$,,False,"Peruvian, Desserts, Seafood","peruvian, desserts, seafood",25.7830846775703,-80.2637038397018,US,FL,Miami,33126
MxtjG2Oln03fQPbCkYPt5g,La Patagonia Argentina,4.0,375,$$,['delivery'],False,"Latin American, Argentine","latin, argentine",25.778542,-80.274011,US,FL,Miami,33126
Llejx_lL8EZtJ27_s01tkQ,El Palacio De Los Jugos,4.0,480,$,['delivery'],False,"Fruits & Veggies, Latin American","markets, latin",25.77104,-80.28858,US,FL,Miami,33144
gr1H3g2FuAiZG-aj_Zm7PA,Hungry Bear Sub Shop,4.5,100,$,['delivery'],False,Sandwiches,sandwiches,25.80596,-80.3127,US,FL,Miami,33122
OwF4aaSHwwhLRYmx270qoQ,Tacos El Carnal,4.0,235,$,"['pickup', 'delivery']",False,Mexican,mexican,25.7725942507471,-80.2383141964674,US,FL,Miami,33135
ewAnjtcGnOyC4IO41GBh8Q,Burger Beast Burger Joint,4.5,14,$,,False,Burgers,burgers,25.7325196054694,-80.339264832437,US,FL,Miami,33165
zET3OAlPKLVsVlmSLq5idQ,Seaspice Brasserie & Lounge,3.0,929,$$$,,False,American (New),newamerican,25.7777458026811,-80.204677935582,US,FL,Miami,33128
QAPNSxiFhcNSdmjM0dD8Tw,Lung Yai Thai Tapas,4.0,1334,$$,"['pickup', 'delivery']",False,"Tapas/Small Plates, Thai","tapasmallplates, thai",25.76595,-80.22329,US,FL,Miami,33135
YMruiRKiR9JaRWbXMeud9w,Red Carpet Italian Restaurant,4.5,394,$$,"['delivery', 'pickup', 'restaurant_reservation']",False,Italian,italian,25.764462014499,-80.2513395226845,US,FL,Miami,33135
hZm7TunlrksQbgS0ssXbUg,Versailles Restaurant,4.0,4775,$$,,False,"Cuban, Coffee & Tea, Latin American","cuban, coffee, latin",25.7650962116388,-80.2527339189549,US,FL,Miami,33135
rQn58bmvGksSXToxsX5n6Q,World Famous House of Mac,4.5,981,$$,"['pickup', 'delivery']",False,"Soul Food, American (New), Chicken Wings","soulfood, newamerican, chicken_wings",25.796531,-80.198716,US,FL,Miami,33127
aFQiOvmHp9p4603vfYwavw,Los Dos Chefs,4.5,5,,['pickup'],False,Cuban,cuban,25.77845,-80.28246,US,FL,Miami,33126
JnWk31PtaDGD3JfO9eyVkw,Impressions,5.0,6,,,False,Cafes,cafes,25.7783409549632,-80.3094483911991,US,FL,Miami,33126
byXml8ucI-z68JnV7aFpTg,China Express,4.0,134,$,"['pickup', 'delivery']",False,Chinese,chinese,25.77057,-80.28882,US,FL,Miami,33144
nBIxqLEenuVRXQRTNiL3WA,Cajun Boil,4.5,532,$$,['delivery'],False,"Cajun/Creole, Seafood, Asian Fusion","cajun, seafood, asianfusion",25.768374,-80.360208,US,FL,Miami,33174
MfkZSdJ0w4-SOLJiEyHU5A,KYU,4.5,1434,$$$,"['pickup', 'delivery']",False,Asian Fusion,asianfusion,25.80089,-80.20017,US,FL,Miami,33127
s4LuSZ5F_1R2mRb3pOHNbQ,Mamey - Miami,4.5,76,,,False,"Cocktail Bars, Tapas/Small Plates","cocktailbars, tapasmallplates",25.712693,-80.278147,US,FL,Miami,33146
fV6YXmRerkHKARygmuaM6A,Mofongo,4.0,362,$$,"['pickup', 'delivery']",False,"Puerto Rican, Latin American","puertorican, latin",25.7655645528436,-80.2213279352882,US,FL,Miami,33135
EvZOPWLb38M0gTzTN9Z1sg,Soju Miami,4.5,75,$$,"['pickup', 'delivery', 'restaurant_reservation']",False,"Korean, Barbeque","korean, bbq",25.79989,-80.20093,US,FL,Miami,33127
N5avKKZ-9n0m1XB73Xax6w,HeartLand,5.0,5,,,False,American (Traditional),tradamerican,25.832332,-80.188394,US,FL,Miami,33137
MfkZSdJ0w4-SOLJiEyHU5A,KYU,4.5,1434,$$$,"['pickup', 'delivery']",False,Asian Fusion,asianfusion,25.80089,-80.20017,US,FL,Miami,33127
3UPjSW45aQ1iTN7nH-HAbw,Taco Bout It,4.0,9,,,False,Tacos,tacos,25.795674,-80.1893,US,FL,Miami,33137
9h9nMMvnINJWMt7TjJtePw,The Taco Stand,4.5,810,$,"['pickup', 'delivery']",False,Mexican,mexican,25.80088,-80.20138,US,FL,Miami,33127
O4gh_gZPp1zW9QtC1aMHWw,House of Food Porn,5.0,87,,,False,"Sushi Bars, Asian Fusion, Wine Bars","sushi, asianfusion, wine_bars",25.8326319884545,-80.200107379434,US,FL,Miami,33150
yxPn5n5se97lnNYN5JcAIw,Le Chick Miami,4.5,684,$$,['delivery'],False,"Cocktail Bars, American (New)","cocktailbars, newamerican",25.79992,-80.20051,US,FL,Miami,33127
rtpuuxmQ1Z-6jyL39wvzZQ,Kush,4.5,2495,$$,['delivery'],False,"Burgers, American (New), Beer Bar","burgers, newamerican, beerbar",25.795817,-80.194701,US,FL,Miami,33127
eo2W_Hakq3SVGUsUSBHvGw,1-800-Lucky,4.0,1249,$$,['delivery'],False,Asian Fusion,asianfusion,25.79931,-80.198,US,FL,Miami,33127
rQn58bmvGksSXToxsX5n6Q,World Famous House of Mac,4.5,981,$$,"['pickup', 'delivery']",False,"Soul Food, American (New), Chicken Wings","soulfood, newamerican, chicken_wings",25.796531,-80.198716,US,FL,Miami,33127
WsUkmAwX3b-evhuNYHjuQw,Boketto,4.0,20,,['delivery'],False,Asian Fusion,asianfusion,25.800194,-80.198137,US,FL,Miami,33127
kOtDJyrQPxqjD6x3ywRocg,Magdoos,5.0,26,$$,"['pickup', 'delivery']",False,Lebanese,lebanese,25.807993,-80.195853,US,FL,Miami,33127
L0jKmH_0xA56zsle_IDLtw,Wynwood Kitchen & Bar,4.0,1195,$$,['delivery'],False,"American (New), Latin American, Tapas/Small Plates","newamerican, latin, tapasmallplates",25.80131,-80.19933,US,FL,Miami,33127
tGKkA2Ru_tfiQdHWIjUA1A,CHICA Miami,4.0,155,,"['pickup', 'delivery']",False,"Latin American, Breakfast & Brunch, Cocktail Bars","latin, breakfast_brunch, cocktailbars",25.82704,-80.18729,US,FL,Miami,33137
R_3tn6IwHmONJd_ERQuqsw,Leku,4.5,21,,,False,"Basque, Spanish","basque, spanish",25.798704,-80.214271,US,FL,Miami,33127
noTxZ9C_3gmZnLM9qicu9w,Jeepney Wynwood,5.0,1,,,False,Filipino,filipino,25.79940040177796,-80.19790824592046,US,FL,Miami,33127
4hQHbmo-sEaqKVPvn62H_Q,Beaker & Gray,4.5,1283,$$,"['pickup', 'delivery']",False,"Cocktail Bars, American (New), Tapas/Small Plates","cocktailbars, newamerican, tapasmallplates",25.80233,-80.19473,US,FL,Miami,33127
fUAu4jFPE4fi6h_GBxC9Cw,Boia De,5.0,82,,"['pickup', 'delivery']",False,"Italian, American (New)","italian, newamerican",25.8243384,-80.1916422,US,FL,Miami,33137
kejmPzpRLbtU_VCIML4qYQ,Tacomiendo,4.5,89,,"['pickup', 'delivery']",False,Tacos,tacos,25.80174834,-80.19133172,US,FL,Miami,33137
KeV40p3hW9rfdbkxs00V7A,Amara at Paraiso,4.0,460,$$$,['delivery'],False,"Latin American, Bars","latin, bars",25.8066777,-80.1857104,US,FL,Miami,33137
8Yu4o07B-Rq2xQxRCsOnkw,Seoul Chicken,4.5,6,,,False,"Korean, Chicken Wings","korean, chicken_wings",25.8128859,-80.1956357,US,FL,Miami,33127
2ttHfIJ9ojAGyEppKKl1jQ,Thatch Miami,4.0,84,$$,,False,Vegan,vegan,25.8073249,-80.1928256,US,FL,Miami,33137
DaLMUXVX9mVGzt_zWvxB_Q,Baiocco,4.5,85,$$$,"['pickup', 'delivery']",False,Italian,italian,25.82742,-80.18629,US,FL,Miami,33137
CZaYDM3s8n5qFNoIc2Ezsw,Prohibition Restaurant and Speakeasy,4.0,924,$$,['delivery'],False,"Lounges, Seafood, Steakhouses","lounges, seafood, steak",25.8083854,-80.1955203,US,FL,Miami,33127
7S4krEYSzjBgrhFk8yRwdQ,Back Door Monkey,4.0,27,,"['pickup', 'delivery']",False,"Cocktail Bars, Asian Fusion","cocktailbars, asianfusion",25.79982,-80.195275,US,FL,Miami,33127
iktVOp3bAf468Fn0f_1GWg,Perrology,4.5,15,,,False,"Vegan, Hot Dogs","vegan, hotdog",25.8021001,-80.191386,US,FL,Miami,33137
fU3Zw-TDOUgn7GMvO3sH1w,La Sandwicherie Wynwood,4.5,67,$,['delivery'],False,"Sandwiches, French, Juice Bars & Smoothies","sandwiches, french, juicebars",25.79931,-80.19846,US,FL,Miami,33127
nvwXcXSSNoV7FDWvYi_OKA,Mandolin Aegean Bistro,4.5,1794,$$,"['pickup', 'delivery']",False,"Mediterranean, Greek, Turkish","mediterranean, greek, turkish",25.8158553,-80.1916263,US,FL,Miami,33137
_yLrPRZii36cTbOll4uibg,The SisterYard,5.0,7,,,False,"Coffee & Tea, Cafes","coffee, cafes",25.81259,-80.202184,US,FL,Miami,33127
BLAK10W5hIAFKC97J-zYMQ,Society BBQ,4.0,47,$$,,False,"Barbeque, Sandwiches","bbq, sandwiches",25.8086574,-80.19348750000002,US,FL,Miami,33127
r9eJWXuI_oGoLbpykAEIiQ,Organic Food Kings,4.5,31,$$,"['pickup', 'delivery']",False,Vegan,vegan,25.807223,-80.195421,US,FL,Miami,33127
LYdTwjtHUcFwNQX_Bs6ZtQ,Coyo Taco,4.0,1539,$$,"['pickup', 'delivery']",False,Mexican,mexican,25.7996879220934,-80.1991713585798,US,FL,Miami,33127
Z2y7QnCdBqoiIhd6NUnzeQ,Taula Fresh Cut Mediterranean Food,4.5,160,$,"['pickup', 'delivery']",False,Mediterranean,mediterranean,25.79137,-80.19431,US,FL,Miami,33136
xTt9wjkfkAPqB9nbvA2d5w,Sparky's Jerk Cuisine,5.0,18,,,False,"Caribbean, Food Stands","caribbean, foodstands",25.795583,-80.198349,US,FL,Miami,33127
tpOO7ImGcgM5beBxLLmDnQ,Bakan,4.0,485,$$,['delivery'],False,Mexican,mexican,25.8029914660201,-80.1990491265011,US,FL,Miami,33127
lFjdswEK9d-xRxnXlstWHw,Chick'nCone Wynwood,4.5,40,,"['pickup', 'delivery']",False,"Fast Food, Comfort Food, Chicken Shop","hotdogs, comfortfood, chickenshop",25.796394,-80.1982725,US,FL,Miami,33127
ax-KjRQ1tjtUelzaG8bibQ,Momosan Wynwood,4.5,3,,"['pickup', 'delivery']",False,"Japanese, Sushi Bars","japanese, sushi",25.80158,-80.20216,US,FL,Miami,33127
JbkZ9sQVdyd1ydrOaklmEQ,Alter,4.0,369,$$$,['delivery'],False,American (New),newamerican,25.7996344,-80.1995534,US,FL,Miami,33127
WEqsL3X9PMXb6GLbM_vvhg,Ghost Kitchen Miami,5.0,2,,"['pickup', 'delivery']",False,"Food Delivery Services, Poke, Burgers","fooddeliveryservices, poke, burgers",25.8181,-80.191761,US,FL,Miami,33137
-jlSWKF0EsXHEZjw3Ggmfw,Roots Miami Kava & Eatery,4.5,55,$$,['delivery'],False,"Lounges, Venues & Event Spaces, Vegan","lounges, venues, vegan",25.8163956,-80.1998417,US,FL,Miami,33127
T4nrMvkWeN8eEKpLLqqHiw,Taste of R Cuisine,5.0,19,$$,"['pickup', 'delivery']",False,"Food Trucks, French, Haitian","foodtrucks, french, haitian",25.8068604,-80.1954832,US,FL,Miami,33127
Gs9HQfdTl3fsVc4nO7DtDg,SUGARCANE Raw Bar Grill,4.0,2164,$$$,"['pickup', 'delivery']",False,"Sushi Bars, Tapas/Small Plates, Cocktail Bars","sushi, tapasmallplates, cocktailbars",25.8069387673562,-80.1932905216295,US,FL,Miami,33137
MR-0km02mb0uFs12gDSbmQ,Mr. Wright's Gold Digger Saloon,4.5,128,$$,"['pickup', 'delivery']",False,"Bars, Tapas Bars, Comfort Food","bars, tapas, comfortfood",25.79583,-80.19245,US,FL,Miami,33137
9lv6P-U1KU9G63gcmgjFQA,Michael's Genuine Food & Drink,4.0,1722,$$$,['delivery'],False,"American (New), Bars","newamerican, bars",25.81321,-80.19269,US,FL,Miami,33137
tuYMBs6jPdSu7KKGWYdrnw,The Stackz shawarma Houze,5.0,32,,"['pickup', 'delivery']",False,"Middle Eastern, Mediterranean","mideastern, mediterranean",25.8002042,-80.1999319,US,FL,Miami,33127
vL1h4Js3cKxDA0GIk46_Mg,Ichimi MIA,4.5,150,$$,['delivery'],False,Japanese,japanese,25.807062,-80.193748,US,FL,Miami,33127
BkWiPhgX1ybXoAhnEgfU9w,Swan,3.5,499,$$$,['delivery'],False,Modern European,modern_european,25.812509888249,-80.1937298476696,US,FL,Miami,33137
p4FCz-jrBHoMS8R81w4mvA,Mr Baba,4.0,56,$$,"['pickup', 'delivery']",False,"Mediterranean, Food Trucks","mediterranean, foodtrucks",25.8024402,-80.192018,US,FL,Miami,33137
b7b4OC6qPfi1mQcmYoJPcA,Esotico Miami,4.0,117,$$,"['pickup', 'delivery']",False,"Cocktail Bars, Hawaiian","cocktailbars, hawaiian",25.7907233,-80.1924596,US,FL,Miami,33132
_f5dSB3eUmz6PE_YgHg0Qw,Mignonette,4.5,653,$$$,['delivery'],False,"American (New), Seafood, Live/Raw Food","newamerican, seafood, raw_food",25.793323,-80.190472,US,FL,Miami,33132
zET3OAlPKLVsVlmSLq5idQ,Seaspice Brasserie & Lounge,3.0,929,$$$,,False,American (New),newamerican,25.7777458026811,-80.204677935582,US,FL,Miami,33128
vsnwPnf9DyhjgU6kGcA2zQ,Garcia's Seafood Grille & Fish Market,3.5,980,$$,"['restaurant_reservation', 'delivery', 'pickup']",False,Seafood,seafood,25.7773456573486,-80.2036666870117,US,FL,Miami,33128
PK1zj4enNWd2xEV1o-2QMg,Rosies,5.0,21,,"['delivery', 'pickup']",False,"Breakfast & Brunch, Waffles, Pop-Up Restaurants","breakfast_brunch, waffles, popuprestaurants",25.7785,-80.20097,US,FL,Miami,33128
UDf0lQ2QimNkhvrwgyIwmg,Kiki On The River,3.0,556,$$$,['delivery'],False,"Greek, Mediterranean","greek, mediterranean",25.77778,-80.20499,US,FL,Miami,33128
OrUYz4QyOaQp24Ry7eim9Q,Casablanca Seafood Bar & Grill,3.5,493,$$$,['delivery'],False,"Seafood Markets, Seafood","seafoodmarkets, seafood",25.7777032052969,-80.2046044584205,US,FL,Miami,33128
Eps1ODuzyLswPNE1xExf8Q,Modern Garden,3.5,8,$$$$,,False,"Mediterranean, Brasseries","mediterranean, brasseries",25.77767,-80.2046,US,FL,Miami,33128
skXvWBZH8zJpqh6QbXrGzw,CRUST,4.5,1014,$$,"['delivery', 'pickup']",False,"Italian, Pizza, Wine Bars","italian, pizza, wine_bars",25.77836,-80.20596,US,FL,Miami,33128
zGf5kkYEU01NQ04DRYVPNQ,Doce Provisions,4.5,694,$$,"['delivery', 'pickup']",False,"Cuban, Latin American, Tapas/Small Plates","cuban, latin, tapasmallplates",25.767862,-80.214191,US,FL,Miami,33130
KhqAdKY3tX-iigL4HyXv7g,Beijing Garden Chinese Restaurant,4.0,29,$,['delivery'],False,Cantonese,cantonese,25.7735835002495,-80.20843143684,US,FL,Miami,33130
lmmFNizrRMyZal3dUQP34g,The Wharf Miami,4.0,535,$$,"['delivery', 'pickup']",False,"Music Venues, Pop-Up Restaurants, Cocktail Bars","musicvenues, popuprestaurants, cocktailbars",25.77264,-80.1998799,US,FL,Miami,33130
jnRWB2qPhiIi5jP_-6C1Jw,Red Rooster Overtown,4.5,69,,,False,"Southern, Cocktail Bars, Soul Food","southern, cocktailbars, soulfood",25.7831928598828,-80.1981799677014,US,FL,Miami,33136
Ifh2cDofbHDcOT2_XYsBTA,Jamaica Corner,4.5,23,,"['delivery', 'pickup']",False,Caribbean,caribbean,25.7738031529053,-80.1923448219896,US,FL,Miami,33131
n6xaLebNjh8sYiYh89gdEQ,Komodo,4.0,1255,$$$,['delivery'],False,"Asian Fusion, Lounges, Cocktail Bars","asianfusion, lounges, cocktailbars",25.7653468682438,-80.1906713264588,US,FL,Miami,33131
bKhqhpmvam-B6GS2ZxX_QQ,Miami River Cafe,4.0,69,$$,['delivery'],False,Mexican,mexican,25.7773169,-80.2080068,US,FL,Miami,33128
nTsEr_CQqsA8zwLV4kT5nA,Cafe La Trova,4.0,361,,"['delivery', 'pickup']",False,"Cocktail Bars, Cuban, Venues & Event Spaces","cocktailbars, cuban, venues",25.7662659,-80.21063,US,FL,Miami,33130
6zj0usvr1HgvFUP26Npawg,Chick-fil-A,3.0,8,,,False,Fast Food,hotdogs,25.779125,-80.195799,US,FL,Miami,33136
4Wa7TnTtgQ-Bm3Qrd5z5Jg,Graziano's in Brickell,4.0,219,$$,"['restaurant_reservation', 'delivery', 'pickup']",False,"Argentine, Wine Bars, Steakhouses","argentine, wine_bars, steak",25.76739,-80.197,US,FL,Miami,33130
cTwcYWUUeaterok391v3Vg,El Primo Red Tacos,3.5,23,,,False,Tacos,tacos,25.774023,-80.194051,US,FL,Miami,33130
yoqNKeW5kj9flZoI211v5w,Pinolandia,4.0,244,$,['delivery'],False,"Latin American, Nicaraguan","latin, nicaraguan",25.77476,-80.2144299,US,FL,Miami,33128
eW-7ByJCeVgMT1_Ty0zjTQ,Cajun Boil,4.5,58,,['delivery'],False,"Cajun/Creole, Seafood, Asian Fusion","cajun, seafood, asianfusion",25.767706,-80.196026,US,FL,Miami,33130
GBbp688iLv7FPdx_x2ciXg,Jamon Iberico Pata Negra Restaurant Tapas & Wine Bar,4.5,343,$$,['delivery'],False,"Spanish, Tapas Bars, Wine Bars","spanish, tapas, wine_bars",25.7735180169408,-80.201877932016,US,FL,Miami,33130
TqX0y-R8q7QA3tGER0z2YQ,Riverside Miami,3.0,44,,,False,"Music Venues, Mediterranean, Mexican","musicvenues, mediterranean, mexican",25.769034,-80.192851,US,FL,Miami,33131
4utRX5zunli5B3HZT2-blw,La Sandwicherie Brickell,4.0,614,$,['delivery'],False,"Sandwiches, French, Juice Bars & Smoothies","sandwiches, french, juicebars",25.76607,-80.19407,US,FL,Miami,33130
nXUsWu-pyCW-XQuL83z2bw,Taquerias El Mexicano,4.0,638,$$,"['delivery', 'pickup']",False,Mexican,mexican,25.766408,-80.202903,US,FL,Miami,33130
xzGdVsFbbx2kmkp6cQtBZA,Bucks Crepes,4.5,13,,['delivery'],False,"Creperies, French, Gluten-Free","creperies, french, gluten_free",25.7802779,-80.1956999,US,FL,Miami,33136
qJBMlcz1GGZx-RMDL_PD1Q,The River Oyster Bar,4.0,771,$$$,"['delivery', 'pickup']",False,"Seafood, Latin American","seafood, latin",25.76766,-80.19197,US,FL,Miami,33131
S13nGG2lHaIPc0zAc-iDJQ,Over Under,4.5,27,,,False,"Burgers, Cocktail Bars","burgers, cocktailbars",25.7743301,-80.1908691,US,FL,Miami,33131
SXhOU7ggBv2EZ8BcksQx4Q,Fatair Al Basha,4.5,48,,"['delivery', 'pickup']",False,Lebanese,lebanese,25.765875,-80.201666,US,FL,Miami,33130
u415sO_MBwtxbe2etM9mog,Foodies,5.0,32,,['delivery'],False,"Hong Kong Style Cafe, Dim Sum, Japanese","hkcafe, dimsum, japanese",25.7879192,-80.1931896,US,FL,Miami,33132
Gf4_G1-yiX9iwHM138ZWFw,The Cocinita Miami,4.5,36,$$,"['delivery', 'pickup']",False,"Vegan, Latin American, Vegetarian","vegan, latin, vegetarian",25.768476,-80.190967,US,FL,Miami,33131
yQjAJfAe4sCtvFmRnOJoDw,Vero,4.5,439,$$,"['restaurant_reservation', 'pickup']",False,"Italian, Pizza, Wineries","italian, pizza, wineries",25.7732471137303,-80.1920659170162,US,FL,Miami,33131
Qt2Dm5PaHBf2dOGdDuSP1A,American Social,3.5,1028,$$,"['delivery', 'pickup']",False,"American (New), Sports Bars, Burgers","newamerican, sportsbars, burgers",25.767836,-80.196232,US,FL,Miami,33130
BlZqSfhGYf4gdQlMkKXU4A,North Italia,4.5,399,$$,['delivery'],False,Italian,italian,25.765223,-80.193529,US,FL,Miami,33130
ppNafji_rRQKEXf4zRl22w,Lebanese Fresh Kitchen,4.5,36,,"['delivery', 'pickup']",False,"Mediterranean, Lebanese, Halal","mediterranean, lebanese, halal",25.77526,-80.19494,US,FL,Miami,33128
eqE6N8xFYBFDeKfBu621mA,Meraki Greek Bistro,4.0,530,$$,"['delivery', 'pickup']",False,Greek,greek,25.772929,-80.192028,US,FL,Miami,33131
g0ZnOpAjAUB55gTSZdzeVw,Pizza Nostra,5.0,4,,"['delivery', 'pickup']",False,Pizza,pizza,25.77361167,-80.20860667,US,FL,Miami,33130
UeT8Rsasz6OEJVlzuSn1EQ,El Cielo by Juan Manuel Barrientos,4.0,171,$$$$,,False,"Colombian, American (New), Desserts","colombian, newamerican, desserts",25.769667,-80.191708,US,FL,Miami,33131
EdsCQyhMZJ24shQlHFDmDA,Los Paisanos Restaurant,4.0,24,$$,['delivery'],False,"Latin American, Honduran","latin, honduran",25.7734203,-80.2081833,US,FL,Miami,33130
yo_Bp6pS8tieBApGvJHy-Q,Fooq’s Presents Da Lida,4.0,465,$$,"['delivery', 'pickup']",False,"American (New), Wine Bars, Laotian","newamerican, wine_bars, laotian",25.78451,-80.1938,US,FL,Miami,33136
b8_XgMhKSPl__dRgY-m6Ig,Station 28,4.5,179,$,"['delivery', 'pickup']",False,"Sandwiches, Peruvian, Burgers","sandwiches, peruvian, burgers",25.77267,-80.192249,US,FL,Miami,33131
HwwT5a1dfmvHmBErnCZlSw,Salsa Fiesta,4.0,99,$$,['delivery'],False,"Mexican, Caterers","mexican, catering",25.787269,-80.212242,US,FL,Miami,33136
3vR7NTYEGtKYqtwGOsuJpg,Hemingways on the Beach Turks and Caicos,3.5,45,$$$,,False,Seafood,seafood,25.7748107910156,-80.1977310180664,US,FL,Miami,
_-_NeXw_JbBTIOEZKItwlw,Moxie's Grill & Bar,4.5,120,$$,['delivery'],False,"Lounges, Cocktail Bars, American (New)","lounges, cocktailbars, newamerican",25.76523,-80.1935,US,FL,Miami,33130
WgDaQornDeCL5uAYoaNK4w,Paseo Catracho,4.0,194,$,,False,"Honduran, American (New)","honduran, newamerican",25.7659488916397,-80.2079663425684,US,FL,Miami,33130
LyGxBKimI8qcB8qWrAZXoQ,Meet The Goat,3.5,11,,['delivery'],False,"Mediterranean, Lebanese","mediterranean, lebanese",25.774031,-80.193994,US,FL,Miami,33130
BJFHumframHNm_hFpQspSA,Poke 305,4.0,193,$$,"['delivery', 'pickup']",False,"Hawaiian, Poke","hawaiian, poke",25.76523,-80.1935,US,FL,Miami,33130
2ZE8s1KqNpSDMrrW6SpXLA,Las Tapas de Rosa,4.5,93,$$,"['delivery', 'pickup']",False,"Spanish, Tapas Bars","spanish, tapas",25.7662827,-80.2016848,US,FL,Miami,33130
nGug2wz3u6bnhRagxgQUTA,Los Catrachos Restaurant,4.0,9,,['delivery'],False,Latin American,latin,25.7738715,-80.2071887,US,FL,Miami,33130
0WRjHd7yO3kTw1tNIqAPJQ,Mr G Seafood Dive,5.0,4,$,,False,"Sandwiches, Tacos, Seafood","sandwiches, tacos, seafood",25.777784,-80.20507,US,FL,Miami,33128
ix8ifP1jQM9ektdVAs19sQ,Crazy About You,4.0,1658,$$,"['delivery', 'restaurant_reservation']",False,"Mediterranean, Italian, Spanish","mediterranean, italian, spanish",25.7620078715623,-80.1889463275432,US,FL,Miami,33131
-b4dNNCCsDMtidBcGtlM7g,Honey Uninhibited,4.0,682,$$,"['delivery', 'pickup', 'restaurant_reservation']",False,"Breakfast & Brunch, Southern, Comfort Food","breakfast_brunch, southern, comfortfood",25.76009,-80.20047,US,FL,Miami,33129
7OPukpYV4i_f5sWyThLL2Q,Atlantica Seafood Restaurant & Market,3.5,148,$$,,False,"Seafood, Seafood Markets","seafood, seafoodmarkets",25.7437523001847,-80.1721119880676,US,FL,Miami,33149
UXHxLN3DcDGI57uDIfCuJA,Old's Havana Cuban Bar & Cocina,4.5,1066,$$,"['delivery', 'pickup', 'restaurant_reservation']",False,"Cuban, Bars","cuban, bars",25.7655942148975,-80.2192383373502,US,FL,Miami,33135
n6xaLebNjh8sYiYh89gdEQ,Komodo,4.0,1255,$$$,['delivery'],False,"Asian Fusion, Lounges, Cocktail Bars","asianfusion, lounges, cocktailbars",25.7653468682438,-80.1906713264588,US,FL,Miami,33131
S09-LdcYY5qilnA4zWS3TQ,Palmas Café,4.0,83,$,"['delivery', 'pickup']",False,Latin American,latin,25.755393,-80.196821,US,FL,Miami,33131
8_cuODO8G0yuzQO_fRW5kA,Toro Toro,4.5,1043,$$$,"['delivery', 'pickup']",False,"Steakhouses, Tapas Bars, Cocktail Bars","steak, tapas, cocktailbars",25.772572,-80.185336,US,FL,Miami,33131
t4bR5iWxEo9EE_4Dft5Lbw,Dimitrios Mediterranean Cuisine,4.5,31,,"['delivery', 'pickup', 'restaurant_reservation']",False,"Mediterranean, Lebanese","mediterranean, lebanese",25.7601195,-80.1926032,US,FL,Miami,33131
0FRl-hghB50Gw3CQnasq2Q,Braga Portuguese Restaurant,5.0,3,,['delivery'],False,Portuguese,portuguese,25.751329,-80.21857,US,FL,Miami,33176
qJBMlcz1GGZx-RMDL_PD1Q,The River Oyster Bar,4.0,771,$$$,"['delivery', 'pickup']",False,"Seafood, Latin American","seafood, latin",25.76766,-80.19197,US,FL,Miami,33131
3vR7NTYEGtKYqtwGOsuJpg,Hemingways on the Beach Turks and Caicos,3.5,45,$$$,,False,Seafood,seafood,25.7748107910156,-80.1977310180664,US,FL,Miami,
arvsiHTcyJzge4wxmQiaXw,La Mar by Gaston Acurio,4.0,746,$$$,,False,Peruvian,peruvian,25.7654407159876,-80.1852026674939,US,FL,Miami,33131
wTGfOdzATz-Nb_RB5H3Ctw,Caña Restaurant,4.5,81,$$,"['delivery', 'pickup', 'restaurant_reservation']",False,"Cuban, Cocktail Bars, Seafood","cuban, cocktailbars, seafood",25.762879,-80.190504,US,FL,Miami,33131
ys97r_tdXZy1o8lwx3jl3A,Truluck’s Ocean’s Finest Seafood and Crab,4.5,1029,$$$,['delivery'],False,"Seafood, Steakhouses","seafood, steak",25.7666322556485,-80.1901618736801,US,FL,Miami,33131
BlZqSfhGYf4gdQlMkKXU4A,North Italia,4.5,399,$$,['delivery'],False,Italian,italian,25.765223,-80.193529,US,FL,Miami,33130
4Wa7TnTtgQ-Bm3Qrd5z5Jg,Graziano's in Brickell,4.0,219,$$,"['delivery', 'pickup', 'restaurant_reservation']",False,"Argentine, Wine Bars, Steakhouses","argentine, wine_bars, steak",25.76739,-80.197,US,FL,Miami,33130
BrnGHnLCpbzFdpD0Ur-zLw,Juanchi's Burger,4.0,335,$$,"['delivery', 'pickup']",False,Burgers,burgers,25.75134,-80.21518,US,FL,Miami,33145
_-_NeXw_JbBTIOEZKItwlw,Moxie's Grill & Bar,4.5,120,$$,['delivery'],False,"Lounges, Cocktail Bars, American (New)","lounges, cocktailbars, newamerican",25.76523,-80.1935,US,FL,Miami,33130
wehz3RMIspciHxgqGqEIcQ,Cantina La Veinte Miami,3.5,661,$$$,['delivery'],False,Mexican,mexican,25.768305,-80.188528,US,FL,Miami,33131
Ifzu7FxLMyeMFdx2xwF7GQ,Balloo Restaurant,4.5,45,,"['delivery', 'pickup']",False,"Caribbean, Asian Fusion","caribbean, asianfusion",25.77389833,-80.19004667,US,FL,Miami,33131
JUofvuctiEDWfL6M5yE-1A,Nusr-Et Steakhouse,3.0,653,$$$$,,False,Steakhouses,steak,25.764068,-80.190902,US,FL,Miami,33131
3DQXvYDqwwbWDD8E98zk4A,Osaka,4.0,48,,"['delivery', 'pickup']",False,"Japanese, Sushi Bars","japanese, sushi",25.76037,-80.19033,US,FL,Miami,33131
UfptoMdfazZVdN3mJMe7gw,Il Gabbiano,4.0,627,$$$,['delivery'],False,"Italian, Wine Bars","italian, wine_bars",25.771643,-80.185218,US,FL,Miami,33131
TqX0y-R8q7QA3tGER0z2YQ,Riverside Miami,3.0,44,,,False,"Music Venues, Mediterranean, Mexican","musicvenues, mediterranean, mexican",25.769034,-80.192851,US,FL,Miami,33131
aIQK1sw9Prr-KdUu717vRw,Dolores But You Can Call Me Lolita,4.0,1130,$$,"['delivery', 'restaurant_reservation']",False,"American (New), Cocktail Bars, Tapas Bars","newamerican, cocktailbars, tapas",25.76427,-80.19354,US,FL,Miami,33130
-m9d_aXhlWleiI0K0tiWNg,Cipriani Downtown Miami,3.0,289,$$$$,"['delivery', 'pickup']",False,Italian,italian,25.769079,-80.188602,US,FL,Miami,33131
f2Ruz9Su7EeeA2bK4NlrPg,Bocas Grill Brickell,4.0,296,$$,"['delivery', 'pickup', 'restaurant_reservation']",False,"Latin American, Bars","latin, bars",25.75537,-80.20759,US,FL,Miami,33129
GkTr3rBRRylDsDt1cf7Zwg,El Exquisito,4.0,562,$$,['delivery'],False,Cuban,cuban,25.7655732,-80.2197048,US,FL,Miami,33135
yQjAJfAe4sCtvFmRnOJoDw,Vero,4.5,439,$$,"['pickup', 'restaurant_reservation']",False,"Italian, Pizza, Wineries","italian, pizza, wineries",25.7732471137303,-80.1920659170162,US,FL,Miami,33131
QzSC5s0InHO_QLLNNcdEyw,El Cristo Restaurant & Catering,4.0,455,$$,"['delivery', 'pickup']",False,Cuban,cuban,25.765947,-80.220382,US,FL,Miami,33135
d1-i5ZPBfHagwQW5uvBLSg,Batch Gastropub - Miami,4.0,1122,$$,"['delivery', 'pickup']",False,"Gastropubs, American (New), Bars","gastropubs, newamerican, bars",25.7624962180853,-80.1939906924963,US,FL,Miami,33130
rbJQfGK0_7ojP5EWELdt6Q,Poke OG,5.0,27,,"['delivery', 'pickup']",False,"Poke, Hawaiian","poke, hawaiian",25.77359,-80.19075,US,FL,Miami,33131
BvbTEtC1XGQ_QTJB5MQP8w,Moshi Moshi - Brickell,4.0,294,$$,"['delivery', 'pickup']",False,"Japanese, Sushi Bars, Noodles","japanese, sushi, noodles",25.7609538,-80.2005062,US,FL,Miami,33129
KhqAdKY3tX-iigL4HyXv7g,Beijing Garden Chinese Restaurant,4.0,29,$,['delivery'],False,Cantonese,cantonese,25.7735835002495,-80.20843143684,US,FL,Miami,33130
Qzk4ux58Aw58IzAmXewEGA,NAOE,4.5,340,$$$$,['restaurant_reservation'],False,"Japanese, Sushi Bars, Seafood","japanese, sushi, seafood",25.7678418536709,-80.1856550574303,US,FL,Miami,33131
tNUg9mLG871y5lM1mMn6kw,DaTangZhenWei,4.0,235,$$$,"['delivery', 'pickup']",False,"Chinese, Hot Pot","chinese, hotpot",25.7653321663146,-80.1889792449524,US,FL,Miami,33131
fV6YXmRerkHKARygmuaM6A,Mofongo,4.0,362,$$,"['delivery', 'pickup']",False,"Puerto Rican, Latin American","puertorican, latin",25.7655645528436,-80.2213279352882,US,FL,Miami,33135
B2-pidnIEJcI4-sy97BJww,LPM Restaurant & Bar,4.0,211,$$$$,['delivery'],False,"French, Bars, Mediterranean","french, bars, mediterranean",25.76037,-80.19033,US,FL,Miami,33131
b8_XgMhKSPl__dRgY-m6Ig,Station 28,4.5,179,$,"['delivery', 'pickup']",False,"Sandwiches, Peruvian, Burgers","sandwiches, peruvian, burgers",25.77267,-80.192249,US,FL,Miami,33131
Y6E0G3ATW4597V4jl1uxyA,Zuma,4.0,1354,$$$$,"['delivery', 'pickup']",False,"Japanese, Sushi Bars","japanese, sushi",25.7705248376992,-80.189613327384,US,FL,Miami,33131
BJFHumframHNm_hFpQspSA,Poke 305,4.0,193,$$,"['delivery', 'pickup']",False,"Hawaiian, Poke","hawaiian, poke",25.76523,-80.1935,US,FL,Miami,33130
f63Fbw3_ZygcJY7_CFnjrg,PM Fish & Steak House,4.0,434,$$$,['delivery'],False,"Argentine, Seafood, Steakhouses","argentine, seafood, steak",25.7594251,-80.1936952,US,FL,Miami,33133
PdxEaQA4GVjNFYfzH5tLhw,Gourmeat,5.0,5,,,False,"Butcher, Meat Shops, Kosher","butcher, meats, kosher",25.7508049,-80.2167911,US,FL,Miami,33129
PfTxA6qVXrME9UxHA1Ye_Q,Perricone's Marketplace & Cafe,4.0,1387,$$,"['delivery', 'pickup']",False,"Italian, Sandwiches","italian, sandwiches",25.7612174032679,-80.2001225980035,US,FL,Miami,33129
lmmFNizrRMyZal3dUQP34g,The Wharf Miami,4.0,535,$$,"['delivery', 'pickup']",False,"Music Venues, Pop-Up Restaurants, Cocktail Bars","musicvenues, popuprestaurants, cocktailbars",25.77264,-80.1998799,US,FL,Miami,33130
WgDaQornDeCL5uAYoaNK4w,Paseo Catracho,4.0,194,$,,False,"Honduran, American (New)","honduran, newamerican",25.7659488916397,-80.2079663425684,US,FL,Miami,33130
Ifh2cDofbHDcOT2_XYsBTA,Jamaica Corner,4.5,23,,"['delivery', 'pickup']",False,Caribbean,caribbean,25.7738031529053,-80.1923448219896,US,FL,Miami,33131
4utRX5zunli5B3HZT2-blw,La Sandwicherie Brickell,4.0,614,$,['delivery'],False,"Sandwiches, French, Juice Bars & Smoothies","sandwiches, french, juicebars",25.76607,-80.19407,US,FL,Miami,33130
-b4dNNCCsDMtidBcGtlM7g,Honey Uninhibited,4.0,682,$$,"['restaurant_reservation', 'delivery', 'pickup']",False,"Breakfast & Brunch, Southern, Comfort Food","breakfast_brunch, southern, comfortfood",25.76009,-80.20047,US,FL,Miami,33129
nXUsWu-pyCW-XQuL83z2bw,Taquerias El Mexicano,4.0,638,$$,"['delivery', 'pickup']",False,Mexican,mexican,25.766408,-80.202903,US,FL,Miami,33130
zGf5kkYEU01NQ04DRYVPNQ,Doce Provisions,4.5,694,$$,"['delivery', 'pickup']",False,"Cuban, Latin American, Tapas/Small Plates","cuban, latin, tapasmallplates",25.767862,-80.214191,US,FL,Miami,33130
SXhOU7ggBv2EZ8BcksQx4Q,Fatair Al Basha,4.5,48,,"['delivery', 'pickup']",False,Lebanese,lebanese,25.765875,-80.201666,US,FL,Miami,33130
nTsEr_CQqsA8zwLV4kT5nA,Cafe La Trova,4.0,361,,"['delivery', 'pickup']",False,"Cocktail Bars, Cuban, Venues & Event Spaces","cocktailbars, cuban, venues",25.7662659,-80.21063,US,FL,Miami,33130
zET3OAlPKLVsVlmSLq5idQ,Seaspice Brasserie & Lounge,3.0,929,$$$,,False,American (New),newamerican,25.7777458026811,-80.204677935582,US,FL,Miami,33128
4Wa7TnTtgQ-Bm3Qrd5z5Jg,Graziano's in Brickell,4.0,219,$$,"['restaurant_reservation', 'delivery', 'pickup']",False,"Argentine, Wine Bars, Steakhouses","argentine, wine_bars, steak",25.76739,-80.197,US,FL,Miami,33130
2ZE8s1KqNpSDMrrW6SpXLA,Las Tapas de Rosa,4.5,93,$$,"['delivery', 'pickup']",False,"Spanish, Tapas Bars","spanish, tapas",25.7662827,-80.2016848,US,FL,Miami,33130
eW-7ByJCeVgMT1_Ty0zjTQ,Cajun Boil,4.5,58,,['delivery'],False,"Cajun/Creole, Seafood, Asian Fusion","cajun, seafood, asianfusion",25.767706,-80.196026,US,FL,Miami,33130
KhqAdKY3tX-iigL4HyXv7g,Beijing Garden Chinese Restaurant,4.0,29,$,['delivery'],False,Cantonese,cantonese,25.7735835002495,-80.20843143684,US,FL,Miami,33130
JACmrsmLZETSI9abfwBP4Q,China Lee Restaurant,3.0,27,$,"['delivery', 'pickup']",False,Chinese,chinese,25.766384,-80.2036679,US,FL,Miami,33130
lmmFNizrRMyZal3dUQP34g,The Wharf Miami,4.0,535,$$,"['delivery', 'pickup']",False,"Music Venues, Pop-Up Restaurants, Cocktail Bars","musicvenues, popuprestaurants, cocktailbars",25.77264,-80.1998799,US,FL,Miami,33130
vsnwPnf9DyhjgU6kGcA2zQ,Garcia's Seafood Grille & Fish Market,3.5,980,$$,"['restaurant_reservation', 'delivery', 'pickup']",False,Seafood,seafood,25.7773456573486,-80.2036666870117,US,FL,Miami,33128
WgDaQornDeCL5uAYoaNK4w,Paseo Catracho,4.0,194,$,,False,"Honduran, American (New)","honduran, newamerican",25.7659488916397,-80.2079663425684,US,FL,Miami,33130
4utRX5zunli5B3HZT2-blw,La Sandwicherie Brickell,4.0,614,$,['delivery'],False,"Sandwiches, French, Juice Bars & Smoothies","sandwiches, french, juicebars",25.76607,-80.19407,US,FL,Miami,33130
PfTxA6qVXrME9UxHA1Ye_Q,Perricone's Marketplace & Cafe,4.0,1387,$$,"['delivery', 'pickup']",False,"Italian, Sandwiches","italian, sandwiches",25.7612174032679,-80.2001225980035,US,FL,Miami,33129
ho7UMaX_HLhbQVh0yt1HIw,B2 Café,4.0,18,$,['pickup'],False,"Breakfast & Brunch, Cafeteria","breakfast_brunch, cafeteria",25.7658,-80.20462,US,FL,Miami,33130
Ifh2cDofbHDcOT2_XYsBTA,Jamaica Corner,4.5,23,,"['delivery', 'pickup']",False,Caribbean,caribbean,25.7738031529053,-80.1923448219896,US,FL,Miami,33131
aIQK1sw9Prr-KdUu717vRw,Dolores But You Can Call Me Lolita,4.0,1130,$$,"['restaurant_reservation', 'delivery']",False,"American (New), Cocktail Bars, Tapas Bars","newamerican, cocktailbars, tapas",25.76427,-80.19354,US,FL,Miami,33130
BvbTEtC1XGQ_QTJB5MQP8w,Moshi Moshi - Brickell,4.0,294,$$,"['delivery', 'pickup']",False,"Japanese, Sushi Bars, Noodles","japanese, sushi, noodles",25.7609538,-80.2005062,US,FL,Miami,33129
Hy8U5Ozrnfu5NF1b19dD5w,Los Altos,4.0,73,$$,,False,"Cocktail Bars, Mexican","cocktailbars, mexican",25.76643,-80.2029,US,FL,Miami,33130
qJBMlcz1GGZx-RMDL_PD1Q,The River Oyster Bar,4.0,771,$$$,"['delivery', 'pickup']",False,"Seafood, Latin American","seafood, latin",25.76766,-80.19197,US,FL,Miami,33131
TqX0y-R8q7QA3tGER0z2YQ,Riverside Miami,3.0,44,,,False,"Music Venues, Mediterranean, Mexican","musicvenues, mediterranean, mexican",25.769034,-80.192851,US,FL,Miami,33131
UDf0lQ2QimNkhvrwgyIwmg,Kiki On The River,3.0,556,$$$,['delivery'],False,"Greek, Mediterranean","greek, mediterranean",25.77778,-80.20499,US,FL,Miami,33128
t4bR5iWxEo9EE_4Dft5Lbw,Dimitrios Mediterranean Cuisine,4.5,31,,"['restaurant_reservation', 'delivery', 'pickup']",False,"Mediterranean, Lebanese","mediterranean, lebanese",25.7601195,-80.1926032,US,FL,Miami,33131
AbGPw7KTGbzkYmjqfvK0yw,Cabanas Restaurant,4.0,89,$,"['delivery', 'pickup']",False,"Latin American, Sandwiches","latin, sandwiches",25.7662986,-80.201358,US,FL,Miami,33130
Qt2Dm5PaHBf2dOGdDuSP1A,American Social,3.5,1028,$$,"['delivery', 'pickup']",False,"American (New), Sports Bars, Burgers","newamerican, sportsbars, burgers",25.767836,-80.196232,US,FL,Miami,33130
cTwcYWUUeaterok391v3Vg,El Primo Red Tacos,3.5,23,,,False,Tacos,tacos,25.774023,-80.194051,US,FL,Miami,33130
d1-i5ZPBfHagwQW5uvBLSg,Batch Gastropub - Miami,4.0,1122,$$,"['delivery', 'pickup']",False,"Gastropubs, American (New), Bars","gastropubs, newamerican, bars",25.7624962180853,-80.1939906924963,US,FL,Miami,33130
yoqNKeW5kj9flZoI211v5w,Pinolandia,4.0,244,$,['delivery'],False,"Latin American, Nicaraguan","latin, nicaraguan",25.77476,-80.2144299,US,FL,Miami,33128
BlZqSfhGYf4gdQlMkKXU4A,North Italia,4.5,399,$$,['delivery'],False,Italian,italian,25.765223,-80.193529,US,FL,Miami,33130
Eps1ODuzyLswPNE1xExf8Q,Modern Garden,3.5,8,$$$$,,False,"Mediterranean, Brasseries","mediterranean, brasseries",25.77767,-80.2046,US,FL,Miami,33128
f2Ruz9Su7EeeA2bK4NlrPg,Bocas Grill Brickell,4.0,296,$$,"['restaurant_reservation', 'delivery', 'pickup']",False,"Latin American, Bars","latin, bars",25.75537,-80.20759,US,FL,Miami,33129
OrUYz4QyOaQp24Ry7eim9Q,Casablanca Seafood Bar & Grill,3.5,493,$$$,['delivery'],False,"Seafood Markets, Seafood","seafoodmarkets, seafood",25.7777032052969,-80.2046044584205,US,FL,Miami,33128
_TJ9znbvfXUDxW6oQRr1zQ,Delicias en Miami,5.0,4,,,False,"Latin American, Food Stands, Burgers","latin, foodstands, burgers",25.7660933222096,-80.2082342281938,US,FL,Miami,33131
_-_NeXw_JbBTIOEZKItwlw,Moxie's Grill & Bar,4.5,120,$$,['delivery'],False,"Lounges, Cocktail Bars, American (New)","lounges, cocktailbars, newamerican",25.76523,-80.1935,US,FL,Miami,33130
BJFHumframHNm_hFpQspSA,Poke 305,4.0,193,$$,"['delivery', 'pickup']",False,"Hawaiian, Poke","hawaiian, poke",25.76523,-80.1935,US,FL,Miami,33130
legfAKxZnNYVxAqRpZIIhw,San Pocho,3.5,170,$$,"['delivery', 'pickup']",False,"Colombian, Bars","colombian, bars",25.766306,-80.209381,US,FL,Miami,33130
wUgicT0LJbrHnav4d8SwSA,Gyu-Kaku Japanese BBQ,4.0,1374,$$,['delivery'],False,"Japanese, Barbeque, Asian Fusion","japanese, bbq, asianfusion",25.7614869910215,-80.1943418392868,US,FL,Miami,33130
Cs8ZS8sSeFtLnddHyrhWSA,Fonda La Chismosa,3.5,37,$$,['delivery'],False,Colombian,colombian,25.76622,-80.211082,US,FL,Miami,33130
WuTpipAE9UMkU7_Io52KxQ,Zuuk Mediterranean Kitchen,4.0,422,$$,"['delivery', 'pickup']",False,"Mediterranean, Middle Eastern","mediterranean, mideastern",25.76209,-80.19355,US,FL,Miami,33130
bKhqhpmvam-B6GS2ZxX_QQ,Miami River Cafe,4.0,69,$$,['delivery'],False,Mexican,mexican,25.7773169,-80.2080068,US,FL,Miami,33128
2tioPlTs6R9BECh8gJSq4Q,Tutto Pasta Ristorante,4.0,143,$$,"['delivery', 'pickup']",False,Italian,italian,25.7606507,-80.2001463,US,FL,Miami,33129
UeT8Rsasz6OEJVlzuSn1EQ,El Cielo by Juan Manuel Barrientos,4.0,171,$$$$,,False,"Colombian, American (New), Desserts","colombian, newamerican, desserts",25.769667,-80.191708,US,FL,Miami,33131
yArWW2hpGmq8wq3nvC_f4A,Casa Tua Cucina,4.0,418,$$,"['delivery', 'pickup']",False,"Italian, Mediterranean","italian, mediterranean",25.76704,-80.19472,US,FL,Miami,33130
yQjAJfAe4sCtvFmRnOJoDw,Vero,4.5,439,$$,"['restaurant_reservation', 'pickup']",False,"Italian, Pizza, Wineries","italian, pizza, wineries",25.7732471137303,-80.1920659170162,US,FL,Miami,33131
f63Fbw3_ZygcJY7_CFnjrg,PM Fish & Steak House,4.0,434,$$$,['delivery'],False,"Argentine, Seafood, Steakhouses","argentine, seafood, steak",25.7594251,-80.1936952,US,FL,Miami,33133
GBbp688iLv7FPdx_x2ciXg,Jamon Iberico Pata Negra Restaurant Tapas & Wine Bar,4.5,343,$$,['delivery'],False,"Spanish, Tapas Bars, Wine Bars","spanish, tapas, wine_bars",25.7735180169408,-80.201877932016,US,FL,Miami,33130
lOA9Kpt3USM-XH0o_7gbsg,Latin Cafe 2000,4.0,139,$$,['delivery'],False,"Latin American, Cuban","latin, cuban",25.7640432,-80.1924733,US,FL,Miami,33131
hZZF4DekkQmi2s4sOETpXg,Luke's Lobster - Brickell City Center,4.0,241,$$,"['delivery', 'pickup']",False,Seafood,seafood,25.767173,-80.193092,US,FL,Miami,33130
ix8ifP1jQM9ektdVAs19sQ,Crazy About You,4.0,1658,$$,"['delivery', 'restaurant_reservation']",False,"Mediterranean, Italian, Spanish","mediterranean, italian, spanish",25.7620078715623,-80.1889463275432,US,FL,Miami,33131
arvsiHTcyJzge4wxmQiaXw,La Mar by Gaston Acurio,4.0,746,$$$,,False,Peruvian,peruvian,25.7654407159876,-80.1852026674939,US,FL,Miami,33131
n6xaLebNjh8sYiYh89gdEQ,Komodo,4.0,1255,$$$,['delivery'],False,"Asian Fusion, Lounges, Cocktail Bars","asianfusion, lounges, cocktailbars",25.7653468682438,-80.1906713264588,US,FL,Miami,33131
8_cuODO8G0yuzQO_fRW5kA,Toro Toro,4.5,1043,$$$,"['delivery', 'pickup']",False,"Steakhouses, Tapas Bars, Cocktail Bars","steak, tapas, cocktailbars",25.772572,-80.185336,US,FL,Miami,33131
JUofvuctiEDWfL6M5yE-1A,Nusr-Et Steakhouse,3.0,653,$$$$,,False,Steakhouses,steak,25.764068,-80.190902,US,FL,Miami,33131
Qzk4ux58Aw58IzAmXewEGA,NAOE,4.5,340,$$$$,['restaurant_reservation'],False,"Japanese, Sushi Bars, Seafood","japanese, sushi, seafood",25.7678418536709,-80.1856550574303,US,FL,Miami,33131
wehz3RMIspciHxgqGqEIcQ,Cantina La Veinte Miami,3.5,661,$$$,['delivery'],False,Mexican,mexican,25.768305,-80.188528,US,FL,Miami,33131
wTGfOdzATz-Nb_RB5H3Ctw,Caña Restaurant,4.5,81,$$,"['delivery', 'pickup', 'restaurant_reservation']",False,"Cuban, Cocktail Bars, Seafood","cuban, cocktailbars, seafood",25.762879,-80.190504,US,FL,Miami,33131
t4bR5iWxEo9EE_4Dft5Lbw,Dimitrios Mediterranean Cuisine,4.5,31,,"['delivery', 'pickup', 'restaurant_reservation']",False,"Mediterranean, Lebanese","mediterranean, lebanese",25.7601195,-80.1926032,US,FL,Miami,33131
aIQK1sw9Prr-KdUu717vRw,Dolores But You Can Call Me Lolita,4.0,1130,$$,"['delivery', 'restaurant_reservation']",False,"American (New), Cocktail Bars, Tapas Bars","newamerican, cocktailbars, tapas",25.76427,-80.19354,US,FL,Miami,33130
RiQyD5x152b-PCzwdztULg,Barefoot at Oasis in the Mandarin Oriental,4.0,1,,,False,American (New),newamerican,25.768208,-80.188835,US,FL,Miami,33131
ys97r_tdXZy1o8lwx3jl3A,Truluck’s Ocean’s Finest Seafood and Crab,4.5,1029,$$$,['delivery'],False,"Seafood, Steakhouses","seafood, steak",25.7666322556485,-80.1901618736801,US,FL,Miami,33131
_-_NeXw_JbBTIOEZKItwlw,Moxie's Grill & Bar,4.5,120,$$,['delivery'],False,"Lounges, Cocktail Bars, American (New)","lounges, cocktailbars, newamerican",25.76523,-80.1935,US,FL,Miami,33130
UfptoMdfazZVdN3mJMe7gw,Il Gabbiano,4.0,627,$$$,['delivery'],False,"Italian, Wine Bars","italian, wine_bars",25.771643,-80.185218,US,FL,Miami,33131
Ifzu7FxLMyeMFdx2xwF7GQ,Balloo Restaurant,4.5,45,,"['delivery', 'pickup']",False,"Caribbean, Asian Fusion","caribbean, asianfusion",25.77389833,-80.19004667,US,FL,Miami,33131
O4oEq4FGo_yXzRg1nqTFaw,Myron Mixon’s Pitmaster Barbeque,4.0,37,,,False,"Barbeque, Bars, Sandwiches","bbq, bars, sandwiches",25.764636,-80.190813,US,FL,Miami,33131
Y6E0G3ATW4597V4jl1uxyA,Zuma,4.0,1354,$$$$,"['delivery', 'pickup']",False,"Japanese, Sushi Bars","japanese, sushi",25.7705248376992,-80.189613327384,US,FL,Miami,33131
FU8AJCcbnWlokd5GCDYK8g,Novikov Miami,4.0,302,$$$,['delivery'],False,"Japanese, Seafood Markets, Bars","japanese, seafoodmarkets, bars",25.771295,-80.187657,US,FL,Miami,33131
tNUg9mLG871y5lM1mMn6kw,DaTangZhenWei,4.0,235,$$$,"['delivery', 'pickup']",False,"Chinese, Hot Pot","chinese, hotpot",25.7653321663146,-80.1889792449524,US,FL,Miami,33131
2LEEl6l-OzoWAelwnKqHwA,Jar + Fork,4.5,292,$$,"['delivery', 'pickup']",False,"Juice Bars & Smoothies, Comfort Food","juicebars, comfortfood",25.774166,-80.189215,US,FL,Miami,33131
qJBMlcz1GGZx-RMDL_PD1Q,The River Oyster Bar,4.0,771,$$$,"['delivery', 'pickup']",False,"Seafood, Latin American","seafood, latin",25.76766,-80.19197,US,FL,Miami,33131
3DQXvYDqwwbWDD8E98zk4A,Osaka,4.0,48,,"['delivery', 'pickup']",False,"Japanese, Sushi Bars","japanese, sushi",25.76037,-80.19033,US,FL,Miami,33131
4utRX5zunli5B3HZT2-blw,La Sandwicherie Brickell,4.0,614,$,['delivery'],False,"Sandwiches, French, Juice Bars & Smoothies","sandwiches, french, juicebars",25.76607,-80.19407,US,FL,Miami,33130
juL62PaXW-WRi_Ihb_G9LA,Yaku by La Mar,5.0,1,,,False,"Cocktail Bars, Peruvian, Tapas/Small Plates","cocktailbars, peruvian, tapasmallplates",25.7654,-80.18528,US,FL,Miami,33131
_tMXqt6aeU_UajCi-Gov1Q,Black Market Miami,4.0,203,$$,"['delivery', 'pickup']",False,"Sports Bars, American (New), Venues & Event Spaces","sportsbars, newamerican, venues",25.7732,-80.19053,US,FL,Miami,33131
d1-i5ZPBfHagwQW5uvBLSg,Batch Gastropub - Miami,4.0,1122,$$,"['delivery', 'pickup']",False,"Gastropubs, American (New), Bars","gastropubs, newamerican, bars",25.7624962180853,-80.1939906924963,US,FL,Miami,33130
BlZqSfhGYf4gdQlMkKXU4A,North Italia,4.5,399,$$,['delivery'],False,Italian,italian,25.765223,-80.193529,US,FL,Miami,33130
Gf4_G1-yiX9iwHM138ZWFw,The Cocinita Miami,4.5,36,$$,"['delivery', 'pickup']",False,"Vegan, Latin American, Vegetarian","vegan, latin, vegetarian",25.768476,-80.190967,US,FL,Miami,33131
B2-pidnIEJcI4-sy97BJww,LPM Restaurant & Bar,4.0,211,$$$$,['delivery'],False,"French, Bars, Mediterranean","french, bars, mediterranean",25.76037,-80.19033,US,FL,Miami,33131
eW-7ByJCeVgMT1_Ty0zjTQ,Cajun Boil,4.5,58,,['delivery'],False,"Cajun/Creole, Seafood, Asian Fusion","cajun, seafood, asianfusion",25.767706,-80.196026,US,FL,Miami,33130
rbJQfGK0_7ojP5EWELdt6Q,Poke OG,5.0,27,,"['delivery', 'pickup']",False,"Poke, Hawaiian","poke, hawaiian",25.77359,-80.19075,US,FL,Miami,33131
-m9d_aXhlWleiI0K0tiWNg,Cipriani Downtown Miami,3.0,289,$$$$,"['delivery', 'pickup']",False,Italian,italian,25.769079,-80.188602,US,FL,Miami,33131
C0oehMtQSl_JOKWIX6ORzQ,Fratelli Milano,4.5,1090,$$,"['delivery', 'pickup']",False,"Italian, Pizza","italian, pizza",25.7734433,-80.1898863,US,FL,Miami,33131
cTwcYWUUeaterok391v3Vg,El Primo Red Tacos,3.5,23,,,False,Tacos,tacos,25.774023,-80.194051,US,FL,Miami,33130
WuTpipAE9UMkU7_Io52KxQ,Zuuk Mediterranean Kitchen,4.0,422,$$,"['delivery', 'pickup']",False,"Mediterranean, Middle Eastern","mediterranean, mideastern",25.76209,-80.19355,US,FL,Miami,33130
S13nGG2lHaIPc0zAc-iDJQ,Over Under,4.5,27,,,False,"Burgers, Cocktail Bars","burgers, cocktailbars",25.7743301,-80.1908691,US,FL,Miami,33131
Ifh2cDofbHDcOT2_XYsBTA,Jamaica Corner,4.5,23,,"['delivery', 'pickup']",False,Caribbean,caribbean,25.7738031529053,-80.1923448219896,US,FL,Miami,33131
eqE6N8xFYBFDeKfBu621mA,Meraki Greek Bistro,4.0,530,$$,"['delivery', 'pickup']",False,Greek,greek,25.772929,-80.192028,US,FL,Miami,33131
GOYKrGdhkEmef5F-Pdp0Rw,Lol On the Bay,4.0,31,$$,"['delivery', 'pickup']",False,"Argentine, American (New), Wine Bars","argentine, newamerican, wine_bars",25.7643738761135,-80.1885469433777,US,FL,Miami,33131
lOA9Kpt3USM-XH0o_7gbsg,Latin Cafe 2000,4.0,139,$$,['delivery'],False,"Latin American, Cuban","latin, cuban",25.7640432,-80.1924733,US,FL,Miami,33131
b8_XgMhKSPl__dRgY-m6Ig,Station 28,4.5,179,$,"['delivery', 'pickup']",False,"Sandwiches, Peruvian, Burgers","sandwiches, peruvian, burgers",25.77267,-80.192249,US,FL,Miami,33131
TqX0y-R8q7QA3tGER0z2YQ,Riverside Miami,3.0,44,,,False,"Music Venues, Mediterranean, Mexican","musicvenues, mediterranean, mexican",25.769034,-80.192851,US,FL,Miami,33131
7vUu6-Rc56G1FThTx1hwtA,Boss cow Oyster Bar,4.5,10,,,False,Seafood,seafood,25.763864674943896,-80.19332144984371,US,FL,Miami,33130
yQjAJfAe4sCtvFmRnOJoDw,Vero,4.5,439,$$,"['pickup', 'restaurant_reservation']",False,"Italian, Pizza, Wineries","italian, pizza, wineries",25.7732471137303,-80.1920659170162,US,FL,Miami,33131
FNch79D08Y-40rBcRyEeeQ,N by NAOE,5.0,8,$$$$,['restaurant_reservation'],False,"Japanese, Seafood, Sushi Bars","japanese, seafood, sushi",25.767347,-80.185392,US,FL,Miami,33131
83bT4JrOTR6gU8693DXwaQ,Marabu,4.0,58,,"['delivery', 'pickup']",False,Cuban,cuban,25.76731,-80.1932,US,FL,Miami,33131
Tc4YtiYW5z8UcBT8xWsBkQ,Mister O1 - Brickell,4.5,604,$$,"['delivery', 'pickup']",False,"Pizza, Salad, Wine Bars","pizza, salad, wine_bars",25.7643844052975,-80.1934123866475,US,FL,Miami,33131
yArWW2hpGmq8wq3nvC_f4A,Casa Tua Cucina,4.0,418,$$,"['delivery', 'pickup']",False,"Italian, Mediterranean","italian, mediterranean",25.76704,-80.19472,US,FL,Miami,33130
pBgm27MQ85T6S00So1PAKQ,Area 31,3.5,746,$$$,['delivery'],False,"Seafood, American (New), Cocktail Bars","seafood, newamerican, cocktailbars",25.7702253553012,-80.1896206576721,US,FL,Miami,33131
A_J1hMJWlIBR_-Y6IhjUig,Blue Water Cafe,4.0,23,$$,['delivery'],False,"American (Traditional), Cocktail Bars","tradamerican, cocktailbars",25.772098,-80.185096,US,FL,Miami,33131
3UPjSW45aQ1iTN7nH-HAbw,Taco Bout It,4.0,9,,,False,Tacos,tacos,25.795674,-80.1893,US,FL,Miami,33137
ix8ifP1jQM9ektdVAs19sQ,Crazy About You,4.0,1658,$$,"['restaurant_reservation', 'delivery']",False,"Mediterranean, Italian, Spanish","mediterranean, italian, spanish",25.7620078715623,-80.1889463275432,US,FL,Miami,33131
EvZOPWLb38M0gTzTN9Z1sg,Soju Miami,4.5,75,$$,"['restaurant_reservation', 'delivery', 'pickup']",False,"Korean, Barbeque","korean, bbq",25.79989,-80.20093,US,FL,Miami,33127
1h8-r9cLeXxW99HhlRUnlA,CVI.CHE 105,4.5,3899,$$,['delivery'],False,"Peruvian, Seafood","peruvian, seafood",25.775383,-80.1884004,US,FL,Miami,33132
pCWEUfkRhDyPvkaxyZpOyA,The Deck at Island Gardens,4.0,147,$$$$,"['delivery', 'pickup']",False,"Venues & Event Spaces, Beer Gardens, Seafood","venues, beergardens, seafood",25.784239,-80.177914,US,FL,Miami,33132
AKsrhl2zUl9Qo8aMP2S8Eg,Joia Beach,3.5,61,,,False,Modern European,modern_european,25.787374046226564,-80.17714842275393,US,FL,Miami,33132
rtpuuxmQ1Z-6jyL39wvzZQ,Kush,4.5,2495,$$,['delivery'],False,"Burgers, American (New), Beer Bar","burgers, newamerican, beerbar",25.795817,-80.194701,US,FL,Miami,33127
MfkZSdJ0w4-SOLJiEyHU5A,KYU,4.5,1434,$$$,"['delivery', 'pickup']",False,Asian Fusion,asianfusion,25.80089,-80.20017,US,FL,Miami,33127
-b4dNNCCsDMtidBcGtlM7g,Honey Uninhibited,4.0,682,$$,"['restaurant_reservation', 'delivery', 'pickup']",False,"Breakfast & Brunch, Southern, Comfort Food","breakfast_brunch, southern, comfortfood",25.76009,-80.20047,US,FL,Miami,33129
n6xaLebNjh8sYiYh89gdEQ,Komodo,4.0,1255,$$$,['delivery'],False,"Asian Fusion, Lounges, Cocktail Bars","asianfusion, lounges, cocktailbars",25.7653468682438,-80.1906713264588,US,FL,Miami,33131
