,ids,names,rating,review_count,price,transactions,is_closed,type_food,type_food_alias,latitude,longitude,country,state,city,zip_code,transactions_
0,SlAhlIL5KAXb4136SHFkOw,Bangin Buns,4.0,5,,"['delivery', 'pickup']",False,Fast Food,hotdogs,33.975267,-118.248158,US,CA,Los Angeles,90001,"['delivery', 'pickup']"
1,spKUIFIABLaU63Ex4PEYvQ,Rays BBQ,4.5,801,$$,['delivery'],False,"Barbeque, Smokehouse, Salad","bbq, smokehouse, salad",33.986598,-118.229803,US,CA,Huntington Park,90255,['delivery']
2,hARUOlpi_buVjoU0gN2ugw,La Zona Sushi,5.0,7,,"['delivery', 'pickup']",False,Sushi Bars,sushi,33.9821249031109,-118.238637149334,US,CA,Los Angeles,90001,"['delivery', 'pickup']"
3,RYpJyi1RhScLZAYrqPMLKQ,Avila's El Ranchito Mexican Restaurant,4.5,666,$$,"['delivery', 'pickup']",False,Mexican,mexican,33.978496,-118.230545,US,CA,Huntington Park,90255,"['delivery', 'pickup']"
4,ACm6CB7VI0d-K5qNzEODhg,Lettuce Feast,4.0,206,$$,[],False,"Food Trucks, Vegan, Comfort Food","foodtrucks, vegan, comfortfood",33.97853,-118.2497,US,CA,Los Angeles,90001,
5,0pWO-0cHH0Jr6nyINqvadA,Charolitas con Amor y Queso,5.0,3,,[],False,Pop-Up Restaurants,popuprestaurants,33.96699,-118.25206,US,CA,Los Angeles,90001,
6,RVJ7CtzHbSIXySMJ7uJw9w,El Senor Taco,3.5,64,$,[],False,Mexican,mexican,33.97499,-118.24696,US,CA,Los Angeles,90001,
7,QWtzUp4zLqzjA_jxLbvDvA,Granny's Kitchen,4.0,358,$$,"['delivery', 'pickup']",False,"Soul Food, Southern","soulfood, southern",33.9930975470943,-118.256304330019,US,CA,Los Angeles,90011,"['delivery', 'pickup']"
8,uWV1r_tQ7vAWK5IELeCmmg,Birrieria Jalisco,4.5,90,$,[],False,Mexican,mexican,33.96956,-118.24735,US,CA,Los Angeles,90001,
9,iKn3cdBPI9o2KNAJ4OHvLQ,The Los Angeles Banh Mi Company,4.5,272,$,"['delivery', 'pickup']",False,"Vietnamese, Sandwiches, Coffee & Tea","vietnamese, sandwiches, coffee",33.9746224,-118.2280264,US,CA,Huntington Park,90255,"['delivery', 'pickup']"
10,2OTBRblmsfRGyPyFdOiY2g,Z's Place,4.5,90,$$,['delivery'],False,American (Traditional),tradamerican,34.007817,-118.2198791,US,CA,Vernon,90058,['delivery']
11,6rCY1MjoIvTiv2cD5M96Yw,The Green Olive,4.0,89,$$,"['delivery', 'pickup']",False,Mediterranean,mediterranean,34.0095276,-118.2195839,US,CA,Los Angeles,90058,"['delivery', 'pickup']"
12,f-qcXHRedFf-p3tZEAojtw,Boys Burgers,4.0,63,$,['delivery'],False,Burgers,burgers,33.97441,-118.24087,US,CA,Los Angeles,90001,['delivery']
13,lxcQvJy1SAHE-gWhyFMN-w,Mariscos Mi Lindo Nayarit,3.5,209,$$,[],False,"Mexican, Seafood","mexican, seafood",33.97452,-118.25672,US,CA,Los Angeles,90001,
14,9ZxnEb6IaQVJ1nMiaUQF-A,The Garbage Truck,3.5,79,$,[],False,"Food Trucks, Burgers, Hot Dogs","foodtrucks, burgers, hotdog",33.97908,-118.25009,US,CA,Los Angeles,90001,
15,b5oc2ewFNaoDBKroN0Tijw,Las Islas De Coral,3.5,75,$$,[],False,Seafood,seafood,33.9766367,-118.2304249,US,CA,Huntington Park,90255,
16,tsJ5KxruWUDFBdfXYGvomQ,Ono Hawaiian BBQ,2.5,54,$,"['delivery', 'pickup']",False,"Hawaiian, Specialty Food","hawaiian, gourmet",33.9746852964163,-118.233785033226,US,CA,Walnut Park,90255,"['delivery', 'pickup']"
17,_EpkYp1nYMuH8V0iwG8JTw,Bill's Drive In,4.5,44,$,['delivery'],False,Burgers,burgers,33.9745551,-118.2437984,US,CA,Los Angeles,90001,['delivery']
18,_vVQjfThhJUZz7wdh_GOyw,Rajas con Crema,5.0,173,$$,"['restaurant_reservation', 'delivery', 'pickup']",False,Mexican,mexican,33.988394,-118.199977,US,CA,Maywood,90270,"['restaurant_reservation', 'delivery', 'pickup']"
19,8jli1kBhKRw3SluKvwyr8g,The Original Snack Shack,4.5,45,$,['delivery'],False,Burgers,burgers,33.991413,-118.256095,US,CA,Los Angeles,90011,['delivery']
20,GdK64PuX-0xX4W1c8JdFlg,New Time Noodles,4.5,27,$,[],False,"Noodles, Korean","noodles, korean",33.983365,-118.224373,US,CA,Huntington Park,90255,
21,BZJj5TaIKe-4UXYOz89Lbw,Carlita's Antojitos,5.0,1,,[],False,Peruvian,peruvian,34.009132,-118.219519,US,CA,Vernon,90058,
22,spFCDmXLUehiQALiXH1NqQ,Little Trattoria 25,4.5,185,$$,['delivery'],False,Italian,italian,33.9935221334472,-118.225381050213,US,CA,Huntington Park,90255,['delivery']
23,wFBv3M7WiaVhV7jyQw2_VQ,Dirty South Soulfood,4.0,185,$$,"['delivery', 'pickup']",False,"Southern, Soul Food, Buffets","southern, soulfood, buffets",33.9649,-118.22554,US,CA,South Gate,90280,"['delivery', 'pickup']"
24,Ns6lRJUf6yLX7Ww_aPuuqA,Emy Burgers,3.5,11,$,['delivery'],False,Burgers,burgers,33.9734845,-118.2478149,US,CA,Los Angeles,90001,['delivery']
25,4fjCNwFoUFZqBqwBCbRoXg,Trattoria 25 Restaurant,3.5,249,$$,['delivery'],False,"Italian, Venues & Event Spaces","italian, venues",34.014455,-118.230759,US,CA,Vernon,90058,['delivery']
26,2uISFQHKKLPmF27myEX2rA,Fries First,5.0,25,$$,[],False,"Food Trucks, Waffles, American (Traditional)","foodtrucks, waffles, tradamerican",33.96699,-118.25206,US,CA,Los Angeles,90001,
27,JhaM-bKmSmKIrXquHnJMdg,Norigami,4.0,21,,[],False,"Japanese, Sushi Bars","japanese, sushi",33.9788284301758,-118.249931335449,US,CA,Los Angeles,90001,
28,hJB2jzfi83qnBYvx-ryXIw,Jade Siam Restaurants,4.0,438,$$,"['delivery', 'pickup']",False,"Thai, Noodles","thai, noodles",33.988765,-118.225828,US,CA,Huntington Park,90255,"['delivery', 'pickup']"
29,g1qqGhzvCzxek2l0DewpPQ,Nina's Cafe,4.5,514,$$,"['delivery', 'pickup']",False,"French, Breakfast & Brunch, Sandwiches","french, breakfast_brunch, sandwiches",33.98179,-118.21985,US,CA,Huntington Park,90255,"['delivery', 'pickup']"
30,Mafm93t8rXgs8_8uJY50pw,Teriyaki Sushi House,4.0,166,$,['delivery'],False,Sushi Bars,sushi,33.9464378356934,-118.216743469238,US,CA,South Gate,90280,['delivery']
31,O1AUEsvjkW7N2hlC0g_A7A,Gabo Crepes,4.5,26,$,[],False,"Creperies, Street Vendors","creperies, streetvendors",33.988999,-118.265772,US,CA,Los Angeles,90011,
32,RDJcioKEyvAfB4D3UAqiig,Gloria's Restaurant & Bar,4.0,325,$$,"['delivery', 'pickup']",False,"Mexican, Bars, Seafood","mexican, bars, seafood",33.9677999,-118.22554,US,CA,Huntington Park,90255,"['delivery', 'pickup']"
33,SnCYLASSE28SbOtiXiCaMA,Cocina Dona Chona,4.5,31,$,['delivery'],False,Mexican,mexican,33.9745851,-118.2378913,US,CA,Los Angeles,90001,['delivery']
34,IAzVa3gaOGeIKttZqphD2g,Teddy's Red Tacos,4.0,871,$,['delivery'],False,"Food Trucks, Tacos","foodtrucks, tacos",33.9894829,-118.262014,US,CA,Los Angeles,90011,['delivery']
35,7plJ-DrATdHWzieJ7pW0vg,Hot Mariscos,4.0,79,$$,['delivery'],False,"Seafood, Cajun/Creole","seafood, cajun",33.97445,-118.22335,US,CA,Huntington Park,90255,['delivery']
36,TFj6wpybgQdAgoGPl6rKlg,Golden Burger,4.0,35,$,['delivery'],False,"Burgers, Asian Fusion","burgers, asianfusion",33.99491,-118.22566,US,CA,Huntington Park,90255,['delivery']
37,nGl-1x3muEnPshitZycHBw,Grilled Fraiche,5.0,49,$$,"['delivery', 'pickup']",False,Caribbean,caribbean,33.960329905405,-118.258849941194,US,CA,Los Angeles,90001,"['delivery', 'pickup']"
38,6w7A4JOwwsUka_DhZFFIDA,Monty’s Chicken & Waffles,4.5,81,,"['delivery', 'pickup']",False,"Waffles, Sandwiches, Chicken Shop","waffles, sandwiches, chickenshop",34.0148676008897,-118.278790867221,US,CA,Los Angeles,90037,"['delivery', 'pickup']"
39,U8WecORGaJ9SV_sbOpCp8A,Taqueria Guadalupana,4.0,7,$,[],False,"Food Trucks, Mexican","foodtrucks, mexican",33.97458,-118.24746,US,CA,Los Angeles,90001,
40,XPKe6zJi3_oRVDQfVOmNyQ,Hana Teppanyaki,4.5,45,,['delivery'],False,Teppanyaki,teppanyaki,33.9825900837863,-118.224955448869,US,CA,Huntington Park,90255,['delivery']
41,VOKQEG1vBs1dRU9uaYMfoA,King Pollo II,5.0,6,,"['delivery', 'pickup']",False,Mexican,mexican,33.975152,-118.248104,US,CA,Los Angeles,90001,"['delivery', 'pickup']"
42,s-ReMKeAoJNfKKdwzvwAtg,Las Islitas No 1,4.0,78,$$,[],False,Mexican,mexican,33.9880144,-118.2522549,US,CA,Los Angeles,90001,
43,BbNxYHulPQpgL-F7Zudnyw,Pollos A La Brasa Los Andes,4.0,79,$$,['delivery'],False,"Peruvian, Latin American","peruvian, latin",33.96285,-118.224095,US,CA,South Gate,90280,['delivery']
44,9Zx9FRtyZvnSKJjh6VJNgg,Wing Society,4.0,20,,[],False,"Chicken Wings, Caterers, Food Trucks","chicken_wings, catering, foodtrucks",33.97397,-118.24989,US,CA,Los Angeles,90001,
45,1BM123KELCDfKc4JJsvrPg,Birreria El Guero,4.0,48,$,[],False,Mexican,mexican,33.9815068735548,-118.236568495631,US,CA,Huntington Park,90255,
46,JbODievonk51C8_W5F0zmQ,Ariya Thai Kitchen,4.0,192,$$,['delivery'],False,Thai,thai,33.9815356,-118.2260583,US,CA,Huntington Park,90255,['delivery']
47,OrAmsVf-5ELQu7gxoilMTQ,Thirty5 Degrees,4.5,229,$,['delivery'],False,"Cafes, Breakfast & Brunch, American (Traditional)","cafes, breakfast_brunch, tradamerican",33.99176,-118.22471,US,CA,Huntington Park,90255,['delivery']
48,4IOkim0jLGwECJQeA8N4xg,8E8 Thai Street Food,5.0,45,,[],False,"Food Trucks, Thai","foodtrucks, thai",33.9888881,-118.2708026,US,CA,Los Angeles,90013,
49,2a9cbMHttND-dNoZYSrxGw,Birria La Chingona,5.0,6,,[],False,Tacos,tacos,33.971489,-118.256722,US,CA,Los Angeles,90001,
50,SlAhlIL5KAXb4136SHFkOw,Bangin Buns,4.0,5,,"['pickup', 'delivery']",False,Fast Food,hotdogs,33.975267,-118.248158,US,CA,Los Angeles,90001,"['pickup', 'delivery']"
51,spKUIFIABLaU63Ex4PEYvQ,Rays BBQ,4.5,801,$$,['delivery'],False,"Barbeque, Smokehouse, Salad","bbq, smokehouse, salad",33.986598,-118.229803,US,CA,Huntington Park,90255,['delivery']
52,crdnz733UMAwJ_TniUrsMA,Mean Chix,4.5,62,,"['pickup', 'delivery']",False,"Chicken Wings, Halal, American (Traditional)","chicken_wings, halal, tradamerican",33.9284756,-118.2148129,US,CA,Lynwood,90262,"['pickup', 'delivery']"
53,Mafm93t8rXgs8_8uJY50pw,Teriyaki Sushi House,4.0,166,$,['delivery'],False,Sushi Bars,sushi,33.9464378356934,-118.216743469238,US,CA,South Gate,90280,['delivery']
54,4iI6_cUb8bHxJXD74Ea1LA,Everytable,5.0,32,,"['pickup', 'delivery']",False,Salad,salad,33.9432089154969,-118.245038241148,US,CA,Los Angeles,90002,"['pickup', 'delivery']"
55,0pWO-0cHH0Jr6nyINqvadA,Charolitas con Amor y Queso,5.0,3,,[],False,Pop-Up Restaurants,popuprestaurants,33.96699,-118.25206,US,CA,Los Angeles,90001,
56,BA7TnabiZhm4S5Jv7jbkxA,Hawkins House of Burgers,4.5,1559,$,"['pickup', 'delivery']",False,"Burgers, Chicken Wings, Fast Food","burgers, chicken_wings, hotdogs",33.9292549,-118.2522808,US,CA,Los Angeles,90059,"['pickup', 'delivery']"
57,sc-GOTy-X2wZP9HjzPoMDQ,Xonxitas Vegan Mexican,5.0,4,,[],False,Pop-Up Restaurants,popuprestaurants,33.94826,-118.24717,US,CA,Los Angeles,90002,
58,GIccVBiWiHQz5lWrTTV9Vw,Dona Mary,5.0,34,$$,[],False,Seafood,seafood,33.9378,-118.23663,US,CA,Los Angeles,90059,
59,3jfH3FY3jH16d6U57lBe_A,All Flavor No Grease,4.0,269,$$,['delivery'],False,"Food Trucks, Mexican","foodtrucks, mexican",33.93804,-118.26194,US,CA,Los Angeles,90059,['delivery']
60,nGl-1x3muEnPshitZycHBw,Grilled Fraiche,5.0,49,$$,"['pickup', 'delivery']",False,Caribbean,caribbean,33.960329905405,-118.258849941194,US,CA,Los Angeles,90001,"['pickup', 'delivery']"
61,U7WdEDOss5y3jKbdLQBJrA,Eatgud Cafe,4.0,158,$,"['pickup', 'delivery']",False,"Cafes, Acai Bowls, Sandwiches","cafes, acaibowls, sandwiches",33.94535,-118.21836,US,CA,South Gate,90280,"['pickup', 'delivery']"
62,ikEn56ZSpsEtst8jz32mMg,The Kickin' Crab- Lynwood,3.5,604,$$,['delivery'],False,"Cajun/Creole, Seafood","cajun, seafood",33.929895,-118.213818,US,CA,Lynwood,90262,['delivery']
63,Wn2IYoMsji6oX8vx347-kA,Birrieria Dianita,5.0,1,,[],False,Mexican,mexican,33.93793810530436,-118.25265878134584,US,CA,Los Angeles,90059,
64,wFBv3M7WiaVhV7jyQw2_VQ,Dirty South Soulfood,4.0,185,$$,"['pickup', 'delivery']",False,"Southern, Soul Food, Buffets","southern, soulfood, buffets",33.9649,-118.22554,US,CA,South Gate,90280,"['pickup', 'delivery']"
65,oQoYo9AehqNuQJmB0MoyOA,Chinese Express,4.5,25,$,['delivery'],False,Chinese,chinese,33.943522,-118.244675,US,CA,Los Angeles,90002,['delivery']
66,jXlGcuFRUSBxm5ycg3UQOw,Watts Coffee House,4.0,314,$$,"['pickup', 'delivery']",False,"Coffee & Tea, Breakfast & Brunch","coffee, breakfast_brunch",33.943472,-118.239854,US,CA,Los Angeles,90002,"['pickup', 'delivery']"
67,cygCM1bBclo3bPTbXtRbHg,Hong Kong Bowl,4.5,22,$,['delivery'],False,Chinese,chinese,33.9600151,-118.2448571,US,CA,Los Angeles,90001,['delivery']
68,TjhE4fvPNXL-Wl4pZYJXFg,Ying Hana Teppanyaki,4.0,9,,[],False,Japanese,japanese,33.95995,-118.24652,US,CA,Los Angeles,90001,
69,RYpJyi1RhScLZAYrqPMLKQ,Avila's El Ranchito Mexican Restaurant,4.5,666,$$,"['pickup', 'delivery']",False,Mexican,mexican,33.978496,-118.230545,US,CA,Huntington Park,90255,"['pickup', 'delivery']"
70,ACm6CB7VI0d-K5qNzEODhg,Lettuce Feast,4.0,206,$$,[],False,"Food Trucks, Vegan, Comfort Food","foodtrucks, vegan, comfortfood",33.97853,-118.2497,US,CA,Los Angeles,90001,
71,G8FOVf0SALJUYeA2RnOpGA,Tasty Hawaiian Grill & Tea Bar,4.5,21,,"['pickup', 'delivery']",False,Hawaiian,hawaiian,33.9648244,-118.2246359,US,CA,South Gate,90280,"['pickup', 'delivery']"
72,o3h6imsqky0rH0PryYTlPQ,Meat Bowl,4.5,141,$,"['pickup', 'delivery']",False,Chinese,chinese,33.9642198107267,-118.224787135968,US,CA,South Gate,90280,"['pickup', 'delivery']"
73,nwmhyyDOd3J7xCl4N8OTKw,El Papayote Grill,3.5,27,,"['pickup', 'delivery']",False,Salvadoran,salvadoran,33.960255,-118.244729,US,CA,Los Angeles,90001,"['pickup', 'delivery']"
74,_vVQjfThhJUZz7wdh_GOyw,Rajas con Crema,5.0,173,$$,"['pickup', 'delivery', 'restaurant_reservation']",False,Mexican,mexican,33.988394,-118.199977,US,CA,Maywood,90270,"['pickup', 'delivery', 'restaurant_reservation']"
75,BbNxYHulPQpgL-F7Zudnyw,Pollos A La Brasa Los Andes,4.0,79,$$,['delivery'],False,"Peruvian, Latin American","peruvian, latin",33.96285,-118.224095,US,CA,South Gate,90280,['delivery']
76,Y0ZyDCpkrZUTeEB55BMlZw,Puerto Rican Flavors,4.5,13,,[],False,"Puerto Rican, Empanadas","puertorican, empanadas",33.9626135,-118.20502183,US,CA,South Gate,90280,
77,Hik7Mj-Sam7goClQsMun7A,Balam Mexican Kitchen,4.5,635,$,"['pickup', 'delivery']",False,Mexican,mexican,33.9221976552512,-118.209478348335,US,CA,Lynwood,90262,"['pickup', 'delivery']"
78,XeALMPvVEoQf1_4YhTk-lw,Pupuseria La Favorita,4.5,26,$,['delivery'],False,Salvadoran,salvadoran,33.9600251,-118.2554119,US,CA,Los Angeles,90001,['delivery']
79,sKfwQYSfABIqXZ2RPAxlxQ,Tacos Iberia,3.0,1,,[],False,Mexican,mexican,33.953537377635364,-118.23308195918798,US,CA,Los Angeles,90002,
80,qLyuqzKOuCvKYJ7uk1L1gQ,Mariscos Don Camaron,4.5,9,,[],False,"Seafood, Food Trucks","seafood, foodtrucks",33.9544778739126,-118.230577476155,US,CA,Los Angeles,90002,
81,g-UI37EnWkqBfoRIiHFohw,Roscoe's House of Chicken & Waffles,3.5,594,$$,"['pickup', 'delivery']",False,"Soul Food, Waffles, Chicken Shop","soulfood, waffles, chickenshop",33.9599,-118.27421,US,CA,Los Angeles,90003,"['pickup', 'delivery']"
82,-jynRAmRh0ZRDI9yLkZ0Nw,La Pasta,5.0,172,,"['pickup', 'delivery']",False,"Italian, Pizza, Pasta Shops","italian, pizza, pastashops",33.931881,-118.20376233,US,CA,Lynwood,90262,"['pickup', 'delivery']"
83,hARUOlpi_buVjoU0gN2ugw,La Zona Sushi,5.0,7,,"['pickup', 'delivery']",False,Sushi Bars,sushi,33.9821249031109,-118.238637149334,US,CA,Los Angeles,90001,"['pickup', 'delivery']"
84,tsJ5KxruWUDFBdfXYGvomQ,Ono Hawaiian BBQ,2.5,54,$,"['pickup', 'delivery']",False,"Hawaiian, Specialty Food","hawaiian, gourmet",33.9746852964163,-118.233785033226,US,CA,Walnut Park,90255,"['pickup', 'delivery']"
85,O1AUEsvjkW7N2hlC0g_A7A,Gabo Crepes,4.5,26,$,[],False,"Creperies, Street Vendors","creperies, streetvendors",33.988999,-118.265772,US,CA,Los Angeles,90011,
86,uWV1r_tQ7vAWK5IELeCmmg,Birrieria Jalisco,4.5,90,$,[],False,Mexican,mexican,33.96956,-118.24735,US,CA,Los Angeles,90001,
87,OaCymRvOt78S2X1IGZ954w,Hot Bowl Noodle,3.5,182,$,"['pickup', 'delivery']",False,Vietnamese,vietnamese,33.9300751,-118.2133701,US,CA,Lynwood,90262,"['pickup', 'delivery']"
88,GdK64PuX-0xX4W1c8JdFlg,New Time Noodles,4.5,27,$,[],False,"Noodles, Korean","noodles, korean",33.983365,-118.224373,US,CA,Huntington Park,90255,
89,gZrdIbfkOF6E2RhUhKD6PA,Super Teriyaki,4.0,85,$,"['pickup', 'delivery']",False,Japanese,japanese,33.928742,-118.197725,US,CA,Lynwood,90262,"['pickup', 'delivery']"
90,_EtO0tY3TopSiav6TVeFWQ,Birrieria El Rebaño,4.5,25,,[],False,Mexican,mexican,33.9597398614724,-118.222093715182,US,CA,South Gate,90280,
91,RDJcioKEyvAfB4D3UAqiig,Gloria's Restaurant & Bar,4.0,325,$$,"['pickup', 'delivery']",False,"Mexican, Bars, Seafood","mexican, bars, seafood",33.9677999,-118.22554,US,CA,Huntington Park,90255,"['pickup', 'delivery']"
92,2uISFQHKKLPmF27myEX2rA,Fries First,5.0,25,$$,[],False,"Food Trucks, Waffles, American (Traditional)","foodtrucks, waffles, tradamerican",33.96699,-118.25206,US,CA,Los Angeles,90001,
93,AQ7KoCN_teDawMdJ9Tbr6g,Tacos De Birria,5.0,11,,[],False,Tacos,tacos,33.9326545706018,-118.238924259259,US,CA,Los Angeles,90059,
94,zTxMfTxnxZ4gRdcTjGPLnw,La Cemita Poblana,4.0,22,$,[],False,Mexican,mexican,33.959888,-118.255783,US,CA,Los Angeles,90001,
95,asebA7Ytz9qyVSqEfkj0kg,Kim's Fish World,4.5,49,$,['delivery'],False,"Seafood Markets, Fish & Chips","seafoodmarkets, fishnchips",33.94512317,-118.2647765,US,CA,Los Angeles,90003,['delivery']
96,g1qqGhzvCzxek2l0DewpPQ,Nina's Cafe,4.5,514,$$,"['pickup', 'delivery']",False,"French, Breakfast & Brunch, Sandwiches","french, breakfast_brunch, sandwiches",33.98179,-118.21985,US,CA,Huntington Park,90255,"['pickup', 'delivery']"
97,9ZxnEb6IaQVJ1nMiaUQF-A,The Garbage Truck,3.5,79,$,[],False,"Food Trucks, Burgers, Hot Dogs","foodtrucks, burgers, hotdog",33.97908,-118.25009,US,CA,Los Angeles,90001,
98,iKn3cdBPI9o2KNAJ4OHvLQ,The Los Angeles Banh Mi Company,4.5,272,$,"['pickup', 'delivery']",False,"Vietnamese, Sandwiches, Coffee & Tea","vietnamese, sandwiches, coffee",33.9746224,-118.2280264,US,CA,Huntington Park,90255,"['pickup', 'delivery']"
99,_Gzb8oDw4QNbAVIqW9Kanw,La Casita Mexicana,4.0,1092,$$,"['pickup', 'delivery']",False,"Mexican, Caterers","mexican, catering",33.9786,-118.19515,US,CA,Bell,90201,"['pickup', 'delivery']"
100,SlAhlIL5KAXb4136SHFkOw,Bangin Buns,4.0,5,,"['pickup', 'delivery']",False,Fast Food,hotdogs,33.975267,-118.248158,US,CA,Los Angeles,90001,"['pickup', 'delivery']"
101,spKUIFIABLaU63Ex4PEYvQ,Rays BBQ,4.5,801,$$,['delivery'],False,"Barbeque, Smokehouse, Salad","bbq, smokehouse, salad",33.986598,-118.229803,US,CA,Huntington Park,90255,['delivery']
102,g-UI37EnWkqBfoRIiHFohw,Roscoe's House of Chicken & Waffles,3.5,594,$$,"['pickup', 'delivery']",False,"Soul Food, Waffles, Chicken Shop","soulfood, waffles, chickenshop",33.9599,-118.27421,US,CA,Los Angeles,90003,"['pickup', 'delivery']"
103,Bk-csZIKVtMTQTpH6V9gUg,Charlie's Famous Fried Chicken,4.5,108,$,['delivery'],False,Chicken Shop,chickenshop,33.95967,-118.30991,US,CA,Los Angeles,90047,['delivery']
104,gTnENRgQRiVa3LxKO6FaBg,Taste of the Caribbean,4.5,23,,"['pickup', 'delivery']",False,Caribbean,caribbean,33.98727,-118.30001,US,CA,Los Angeles,90044,"['pickup', 'delivery']"
105,nGl-1x3muEnPshitZycHBw,Grilled Fraiche,5.0,49,$$,"['pickup', 'delivery']",False,Caribbean,caribbean,33.960329905405,-118.258849941194,US,CA,Los Angeles,90001,"['pickup', 'delivery']"
106,QWtzUp4zLqzjA_jxLbvDvA,Granny's Kitchen,4.0,358,$$,"['pickup', 'delivery']",False,"Soul Food, Southern","soulfood, southern",33.9930975470943,-118.256304330019,US,CA,Los Angeles,90011,"['pickup', 'delivery']"
107,4QMmwnNXiojYoZz_ZanJDw,El Tacorin,5.0,69,$,['delivery'],False,Mexican,mexican,33.96454,-118.27863,US,CA,Los Angeles,90003,['delivery']
108,IiOCPQrQ6Gsl5r0R9xrguw,Voodoo Vegan,5.0,10,,[],False,"Vegan, Food Stands","vegan, foodstands",33.9435195922852,-118.310325622559,US,CA,Los Angeles,90047,
109,E9WhBvGEUK4mQxoReDcG3g,The Seafood Xperience,4.0,105,$$,"['pickup', 'delivery']",False,Seafood,seafood,33.974557,-118.315862,US,CA,Los Angeles,90047,"['pickup', 'delivery']"
110,Wn2IYoMsji6oX8vx347-kA,Birrieria Dianita,5.0,1,,[],False,Mexican,mexican,33.93793810530436,-118.25265878134584,US,CA,Los Angeles,90059,
111,-2j7SP_13FMBGOr4ds_nfQ,Wings & Pot,4.0,327,$$,"['pickup', 'delivery']",False,Chicken Wings,chicken_wings,33.95968,-118.31648,US,CA,Los Angeles,90047,"['pickup', 'delivery']"
112,O1AUEsvjkW7N2hlC0g_A7A,Gabo Crepes,4.5,26,$,[],False,"Creperies, Street Vendors","creperies, streetvendors",33.988999,-118.265772,US,CA,Los Angeles,90011,
113,0pWO-0cHH0Jr6nyINqvadA,Charolitas con Amor y Queso,5.0,3,,[],False,Pop-Up Restaurants,popuprestaurants,33.96699,-118.25206,US,CA,Los Angeles,90001,
114,fuWDAc8MP08YnZ-evy7GmA,House Of Boba,4.5,53,$,['delivery'],False,"Juice Bars & Smoothies, Sandwiches, American (Traditional)","juicebars, sandwiches, tradamerican",33.98642,-118.27357,US,CA,Los Angeles,90003,['delivery']
115,9EebmPfSytjnkpf5_pXPqw,Taqueria Tijuana,4.5,114,$,[],False,Mexican,mexican,33.974841,-118.277428,US,CA,Los Angeles,90003,
116,IAzVa3gaOGeIKttZqphD2g,Teddy's Red Tacos,4.0,871,$,['delivery'],False,"Food Trucks, Tacos","foodtrucks, tacos",33.9894829,-118.262014,US,CA,Los Angeles,90011,['delivery']
117,2uISFQHKKLPmF27myEX2rA,Fries First,5.0,25,$$,[],False,"Food Trucks, Waffles, American (Traditional)","foodtrucks, waffles, tradamerican",33.96699,-118.25206,US,CA,Los Angeles,90001,
118,AVjY2YHr2856Rml5jmDz7Q,The Burger Palace,4.5,58,$,['delivery'],False,Burgers,burgers,33.9599551,-118.2737099,US,CA,Los Angeles,90003,['delivery']
119,3jfH3FY3jH16d6U57lBe_A,All Flavor No Grease,4.0,269,$$,['delivery'],False,"Food Trucks, Mexican","foodtrucks, mexican",33.93804,-118.26194,US,CA,Los Angeles,90059,['delivery']
120,9qdHbEyvE-MpCwychSVpBA,UNCLEDADDY BBQ,4.5,7,,['delivery'],False,Barbeque,bbq,33.94634,-118.29201816,US,CA,Los Angeles,90044,['delivery']
121,1HrogOZbNczL9qeyJqNJRQ,Paseo San Miguel,4.0,56,$$,['delivery'],False,Salvadoran,salvadoran,33.98476,-118.29185,US,CA,Los Angeles,90044,['delivery']
122,RYpJyi1RhScLZAYrqPMLKQ,Avila's El Ranchito Mexican Restaurant,4.5,666,$$,"['pickup', 'delivery']",False,Mexican,mexican,33.978496,-118.230545,US,CA,Huntington Park,90255,"['pickup', 'delivery']"
123,4IOkim0jLGwECJQeA8N4xg,8E8 Thai Street Food,5.0,45,,[],False,"Food Trucks, Thai","foodtrucks, thai",33.9888881,-118.2708026,US,CA,Los Angeles,90013,
124,XZZGcH4in7TU4BPqBF6q8Q,Oh Manna Fish Market,4.5,52,$,['delivery'],False,"Seafood Markets, American (Traditional)","seafoodmarkets, tradamerican",33.96042,-118.26055,US,CA,Los Angeles,90001,['delivery']
125,6DbAYZ3iMqHn60Maepqa9Q,Casa Noodle Teriyaki,4.5,137,$,['delivery'],False,"Japanese, Noodles","japanese, noodles",33.98642,-118.27357,US,CA,Los Angeles,90003,['delivery']
126,2a9cbMHttND-dNoZYSrxGw,Birria La Chingona,5.0,6,,[],False,Tacos,tacos,33.971489,-118.256722,US,CA,Los Angeles,90001,
127,ACm6CB7VI0d-K5qNzEODhg,Lettuce Feast,4.0,206,$$,[],False,"Food Trucks, Vegan, Comfort Food","foodtrucks, vegan, comfortfood",33.97853,-118.2497,US,CA,Los Angeles,90001,
128,8jli1kBhKRw3SluKvwyr8g,The Original Snack Shack,4.5,45,$,['delivery'],False,Burgers,burgers,33.991413,-118.256095,US,CA,Los Angeles,90011,['delivery']
129,uWV1r_tQ7vAWK5IELeCmmg,Birrieria Jalisco,4.5,90,$,[],False,Mexican,mexican,33.96956,-118.24735,US,CA,Los Angeles,90001,
130,bP7sKPM--JFlMVsXQ2ndmQ,Pinches Majes Antojitos,5.0,1,,[],False,"Ice Cream & Frozen Yogurt, Juice Bars & Smoothies, Creperies","icecream, juicebars, creperies",33.98548,-118.27429,US,CA,Los Angeles,90003,
131,hARUOlpi_buVjoU0gN2ugw,La Zona Sushi,5.0,7,,"['pickup', 'delivery']",False,Sushi Bars,sushi,33.9821249031109,-118.238637149334,US,CA,Los Angeles,90001,"['pickup', 'delivery']"
132,U9IOnK8pwqsA_NaWH3oPCw,Panda Chefs,5.0,12,,[],False,Chinese,chinese,33.9743081941401,-118.290404141544,US,CA,Los Angeles,90044,
133,4iI6_cUb8bHxJXD74Ea1LA,Everytable,5.0,32,,"['pickup', 'delivery']",False,Salad,salad,33.9432089154969,-118.245038241148,US,CA,Los Angeles,90002,"['pickup', 'delivery']"
134,TB2588_TPLMm-htyLeFakQ,Playa Dorada Pupuseria Y Restaurant,4.0,27,,"['pickup', 'delivery']",False,Salvadoran,salvadoran,33.9400224,-118.2914,US,CA,Los Angeles,90044,"['pickup', 'delivery']"
135,ZTvRktZQwHx07b3t5gMXmg,Hong Kong Restaurant,5.0,5,$,['delivery'],False,Restaurants,restaurants,33.96034,-118.2767,US,CA,Los Angeles,90003,['delivery']
136,EkFf2XXcBKwWfnljwx1gig,Shrimp Daddy - Express,3.5,11,,"['pickup', 'delivery']",False,Seafood,seafood,33.98353,-118.26321,US,CA,Los Angeles,90001,"['pickup', 'delivery']"
137,yahAYOB9pppCA-2lYok5Wg,Authentic Philly At The Corner,4.5,73,$,['delivery'],False,"Cheesesteaks, Salad, Burgers","cheesesteaks, salad, burgers",33.960302,-118.31099,US,CA,Los Angeles,90047,['delivery']
138,lxcQvJy1SAHE-gWhyFMN-w,Mariscos Mi Lindo Nayarit,3.5,209,$$,[],False,"Mexican, Seafood","mexican, seafood",33.97452,-118.25672,US,CA,Los Angeles,90001,
139,wFBv3M7WiaVhV7jyQw2_VQ,Dirty South Soulfood,4.0,185,$$,"['pickup', 'delivery']",False,"Southern, Soul Food, Buffets","southern, soulfood, buffets",33.9649,-118.22554,US,CA,South Gate,90280,"['pickup', 'delivery']"
140,9ZxnEb6IaQVJ1nMiaUQF-A,The Garbage Truck,3.5,79,$,[],False,"Food Trucks, Burgers, Hot Dogs","foodtrucks, burgers, hotdog",33.97908,-118.25009,US,CA,Los Angeles,90001,
141,BA7TnabiZhm4S5Jv7jbkxA,Hawkins House of Burgers,4.5,1559,$,"['pickup', 'delivery']",False,"Burgers, Chicken Wings, Fast Food","burgers, chicken_wings, hotdogs",33.9292549,-118.2522808,US,CA,Los Angeles,90059,"['pickup', 'delivery']"
142,NnKJ62KwYrFlnUXDUYz9Rw,Tacos El Escondido,4.0,7,,[],False,Mexican,mexican,33.966347,-118.256726,US,CA,Los Angeles,90001,
143,urVIOkga4sNNebkrkalOYQ,Las Islas Marias,3.0,74,$$,['delivery'],False,"Seafood, Mexican","seafood, mexican",33.98136,-118.26985,US,CA,Los Angeles,90003,['delivery']
144,ivnX_tNhngBvdepsQFfGIw,Tacos Los Poblanos,4.5,236,$,['delivery'],False,"Food Trucks, Mexican","foodtrucks, mexican",33.9891021960076,-118.265354705316,US,CA,Los Angeles,90011,['delivery']
145,RpgMXd-usckXwHZZM3f7Qg,Jim Dandy Fried Chicken,4.0,247,$,['delivery'],False,"Southern, Chicken Shop","southern, chickenshop",33.93159,-118.29123,US,CA,Los Angeles,90044,['delivery']
146,EoEfWLkzCZURcPgyFAqbJA,Don Lencho Restaurant,4.0,82,$,['delivery'],False,Salvadoran,salvadoran,33.9836,-118.30055,US,CA,Los Angeles,90044,['delivery']
147,cygCM1bBclo3bPTbXtRbHg,Hong Kong Bowl,4.5,22,$,['delivery'],False,Chinese,chinese,33.9600151,-118.2448571,US,CA,Los Angeles,90001,['delivery']
148,yQXLREny5_aI_vKflOEF8A,Mariscos El Peri,5.0,8,$$,[],False,"Seafood, Food Trucks","seafood, foodtrucks",33.9692239,-118.256724,US,CA,Los Angeles,90001,
149,GIccVBiWiHQz5lWrTTV9Vw,Dona Mary,5.0,34,$$,[],False,Seafood,seafood,33.9378,-118.23663,US,CA,Los Angeles,90059,
150,D9zxzPYoOnk6SG3ELkEnRg,CROQUÉ,5.0,2,,[],False,"Sandwiches, French, Fast Food","sandwiches, french, hotdogs",34.076286315918,-118.302085876465,US,CA,Los Angeles,90004,
151,RVbZaawgEGmto6TxOoVBdQ,Running Goose,4.5,1079,$$,"['restaurant_reservation', 'pickup']",False,"Tapas/Small Plates, Gastropubs, Latin American","tapasmallplates, gastropubs, latin",34.10052,-118.32927,US,CA,Los Angeles,90028,"['restaurant_reservation', 'pickup']"
152,6i7KnRylm4bhPIApDFSVCg,Dave's Hot Chicken,4.5,3380,$$,"['delivery', 'pickup']",False,"Chicken Shop, Halal","chickenshop, halal",34.0880681,-118.308962,US,CA,Los Angeles,90029,"['delivery', 'pickup']"
153,SLxKy00itrk-ta8r8zCzTA,Easy Street Burgers,4.5,121,$,"['delivery', 'pickup']",False,Burgers,burgers,34.088796,-118.308573,US,CA,Los Angeles,90029,"['delivery', 'pickup']"
154,pjh40JY5YwWeV8aKhkXERg,Myungrang Hot Dog-California Market LA,4.5,862,$,['delivery'],False,Hot Dogs,hotdog,34.06577,-118.30847,US,CA,Los Angeles,90020,['delivery']
155,k8xtuersBm2cZl0Lao2K5g,The Bun Shop,4.0,1621,$,"['delivery', 'pickup']",False,"Korean, Asian Fusion","korean, asianfusion",34.0740309655666,-118.309187963605,US,CA,Los Angeles,90004,"['delivery', 'pickup']"
156,h1R2iKYdm2lwukzMJvJqDw,Hangari Kalguksu,4.5,1718,$$,"['delivery', 'pickup']",False,"Korean, Noodles","korean, noodles",34.0628602582049,-118.297570301258,US,CA,Los Angeles,90020,"['delivery', 'pickup']"
157,GbAZbcCR969hfa4kCQqRcw,Eat This Cafe,4.5,1266,$$,"['restaurant_reservation', 'delivery', 'pickup']",False,"Breakfast & Brunch, Sandwiches, Salad","breakfast_brunch, sandwiches, salad",34.090825,-118.3323209,US,CA,Los Angeles,90038,"['restaurant_reservation', 'delivery', 'pickup']"
158,rr-hXB0ZqXLzUP97yftp0g,Osteria Mamma,4.0,1651,$$,"['restaurant_reservation', 'delivery', 'pickup']",False,"Italian, Wine Bars","italian, wine_bars",34.0833586783984,-118.324724939274,US,CA,Los Angeles,90038,"['restaurant_reservation', 'delivery', 'pickup']"
159,DrToq9357afdpOyO5w0Y5w,Yup Dduk LA,4.5,2086,$$,"['delivery', 'pickup']",False,Korean,korean,34.064009,-118.3007013,US,CA,Los Angeles,90020,"['delivery', 'pickup']"
160,UTBAwLDlZVFNHz44e0DLRg,Antico Restaurant,4.0,108,$$$,['delivery'],False,Italian,italian,34.07657,-118.31101,US,CA,Los Angeles,90004,['delivery']
161,-XwCatxfjyujeYbhh6ukrQ,Larchmont Village Wine Spirits & Cheese,4.5,937,$,['delivery'],False,"Beer, Wine & Spirits, Sandwiches, Cheese Shops","beer_and_wine, sandwiches, cheese",34.075313,-118.323881,US,CA,Los Angeles,90004,['delivery']
162,PlQjtbZKOw7exAUfrswhNQ,The Kimbap,4.5,597,$,['delivery'],False,Korean,korean,34.06696,-118.30871,US,CA,Los Angeles,90020,['delivery']
163,lYfTKG3uhA5m4coAqWu4ng,Jaragua,4.0,432,$,['delivery'],False,Salvadoran,salvadoran,34.0763908,-118.3068031,US,CA,Los Angeles,90004,['delivery']
164,uzAbw27XQTXTivjgf2bN2w,Han Bat Sul Lung Tang,4.5,2281,$$,['delivery'],False,"Korean, Comfort Food, Soup","korean, comfortfood, soup",34.065414,-118.3095703125,US,CA,Los Angeles,90020,['delivery']
165,xGBRl7Jdp0Iu4NqsTY0oVg,Salmon Talk,5.0,56,,"['delivery', 'pickup']",False,Sushi Bars,sushi,34.0747605,-118.309598,US,CA,Los Angeles,90004,"['delivery', 'pickup']"
166,ugtb8TqL2BgeSeLyB6hDyg,the quiet dumpling,5.0,11,,"['delivery', 'pickup']",False,Pop-Up Restaurants,popuprestaurants,34.095341,-118.294893,US,CA,Los Angeles,90029,"['delivery', 'pickup']"
167,Z57u3vyjkRiO5yIOkmGRNA,Carousel Restaurant,4.5,750,$$,"['restaurant_reservation', 'delivery', 'pickup']",False,"Armenian, Lebanese","armenian, lebanese",34.10137,-118.30125,US,CA,Los Angeles,90027,"['restaurant_reservation', 'delivery', 'pickup']"
168,MltwcufAgZHUftzJhFEfKw,Krack N Krab,4.5,92,,"['delivery', 'pickup']",False,"Seafood, Cajun/Creole, Chicken Wings","seafood, cajun, chicken_wings",34.07556,-118.30877,US,CA,Los Angeles,90004,"['delivery', 'pickup']"
169,JYGPEUZy4k5ObXGIjcD3DA,Hae Jang Chon Korean BBQ Restaurant,4.0,5023,$$,['delivery'],False,"Korean, Barbeque","korean, bbq",34.0638885,-118.3060754,US,CA,Los Angeles,90020,['delivery']
170,C_8Y_wwGFummtQ3OQLRjcg,LAces,5.0,32,,"['delivery', 'pickup']",False,"Sports Bars, American (New), Sandwiches","sportsbars, newamerican, sandwiches",34.074031944589144,-118.30966586116641,US,CA,Los Angeles,90004,"['delivery', 'pickup']"
171,qCrSlf_TSVxITOYIBXGdJQ,Cannabis Cafe,3.5,678,,['delivery'],False,"Cannabis Dispensaries, Cafes","cannabisdispensaries, cafes",34.092688,-118.344421,US,CA,West Hollywood,90038,['delivery']
172,3NNz-pVT_auFKzqt45D2ZA,Western Doma Noodles,4.0,592,$$,['delivery'],False,"Korean, Noodles","korean, noodles",34.07888,-118.30937,US,CA,Los Angeles,90004,['delivery']
173,Fb3WueRF1ekhs72psinq5w,Mario's Peruvian & Seafood,4.0,2369,$$,['delivery'],False,"Seafood, Peruvian","seafood, peruvian",34.0833651,-118.3262166,US,CA,Los Angeles,90038,['delivery']
174,3C2wUqSkpY4-N0O5ArVjwQ,Yuk Dae Jang,4.5,569,$$,"['delivery', 'pickup']",False,"Korean, Comfort Food, Soup","korean, comfortfood, soup",34.0640411376953,-118.288063049316,US,CA,Los Angeles,90020,"['delivery', 'pickup']"
175,0SerWqGwzNWpTA2RBLVdUg,Sun Nong Dan,4.0,1688,$$,"['delivery', 'pickup']",False,"Korean, Soup","korean, soup",34.0630836857803,-118.297481238021,US,CA,Los Angeles,90020,"['delivery', 'pickup']"
176,qAAoilHU25Qr45FOQlA19g,Kang Ho-dong Baekjeong,4.5,4327,$$,"['delivery', 'pickup']",False,"Barbeque, Korean","bbq, korean",34.063765,-118.297262,US,CA,Los Angeles,90020,"['delivery', 'pickup']"
177,6GTaESIP0r1oFunFqqevsw,Cafe Gratitude,4.0,2114,$$,"['delivery', 'pickup']",False,"Vegan, Vegetarian","vegan, vegetarian",34.08279,-118.32404,US,CA,Los Angeles,90004,"['delivery', 'pickup']"
178,a_uYoJZXXU6qchol8caoGA,SUPAMU,4.0,17,,"['delivery', 'pickup']",False,Japanese,japanese,34.08217,-118.30929,US,CA,Los Angeles,90004,"['delivery', 'pickup']"
179,AIhWsp8yNfKZfaX9d9Yajg,Pasta Sisters,4.5,1557,$$,"['delivery', 'pickup']",False,"Delis, Italian","delis, italian",34.0476,-118.317234,US,CA,Los Angeles,90019,"['delivery', 'pickup']"
180,mobZnlSX7HfToSyfe4TV8Q,Gengis Khan,4.5,24,,"['delivery', 'pickup']",False,Mongolian,mongolian,34.08217,-118.30929,US,CA,Los Angeles,90004,"['delivery', 'pickup']"
181,y4X0KfHJ5XWwxMIRukVr1Q,CHD,4.5,73,$$,"['delivery', 'pickup']",False,Korean,korean,34.06229367,-118.29757617,US,CA,Los Angeles,90010,"['delivery', 'pickup']"
182,f3PFV3Kw7TLFcF3E9YgTSw,La Fonda Antioquena,4.0,435,$$,['delivery'],False,Colombian,colombian,34.083723,-118.311995,US,CA,Los Angeles,90038,['delivery']
183,Dnn4_XmzQxOFNpnqh7KyWg,Seongbukdong,4.0,1123,$$,"['delivery', 'pickup']",False,Korean,korean,34.0637349,-118.2943728,US,CA,Los Angeles,90020,"['delivery', 'pickup']"
184,HThfRNFgQSYEhI_QrMx9Rg,Alaska Seafood,4.5,156,$$,['delivery'],False,Seafood,seafood,34.07649,-118.30151,US,CA,Los Angeles,90004,['delivery']
185,f1pe-0jlzBPl_AH2ys_8Bw,Pho 2000,3.5,571,$$,['delivery'],False,Vietnamese,vietnamese,34.07508,-118.30951,US,CA,Los Angeles,90004,['delivery']
186,Ls0cIqY-v6CqNoE2rHjBNg,Noshi Sushi,4.0,1462,$$,['delivery'],False,"Sushi Bars, Japanese","sushi, japanese",34.0761600290924,-118.305407725275,US,CA,Los Angeles,90004,['delivery']
187,IzRINfSLBr6k_dq1e2WNew,Guelaguetza Restaurante,4.0,2320,$$,"['restaurant_reservation', 'delivery', 'pickup']",False,Mexican,mexican,34.05241,-118.30071,US,CA,Los Angeles,90006,"['restaurant_reservation', 'delivery', 'pickup']"
188,BEItepse0gBSfkJ4sb_k-g,Hae Ha Heng Thai Bistro,4.5,1249,$$,"['delivery', 'pickup']",False,Thai,thai,34.06843993759294,-118.30946334676554,US,CA,Los Angeles,90020,"['delivery', 'pickup']"
189,6b1Kud4nDwsqw1kILxI9ZQ,ixlb DimSum Eats,4.5,677,$,['delivery'],False,"Dim Sum, Taiwanese","dimsum, taiwanese",34.09779,-118.3183,US,CA,Los Angeles,90028,['delivery']
190,edhKYvJvIFgfREnUFewxiw,SYTK Sullungtang,0.0,0,,[],False,Korean,korean,34.053109,-118.292327,US,CA,Los Angeles,90006,
191,qCJ2LFfNbXYBIcjXNva1cA,Langer's Delicatessen,4.5,3835,$$,['delivery'],False,"Delis, Sandwiches","delis, sandwiches",34.05609,-118.27658,US,CA,Los Angeles,90057,['delivery']
192,3lVM3iTSu5pD2gO2s8dulQ,Gonjiam,4.0,92,$$,['delivery'],False,Korean,korean,34.0765699,-118.31101,US,CA,Los Angeles,90004,['delivery']
193,oUfPbdzIC1U3TyfeRR-SSg,Saikai Ramen Bar,5.0,116,$$,"['delivery', 'pickup']",False,"Ramen, Noodles","ramen, noodles",34.07493,-118.3095,US,CA,Los Angeles,90004,"['delivery', 'pickup']"
194,TWHGJkTAbF22hvXeReQp9w,Kobawoo House,4.5,1234,$$,"['delivery', 'pickup']",False,"Korean, Soup, Seafood","korean, soup, seafood",34.060116,-118.291004,US,CA,Los Angeles,90005,"['delivery', 'pickup']"
195,UaxSpacBpGQrXv9Cytai2A,Woo Hyang Woo,5.0,96,,[],False,"Korean, Barbeque, Bars","korean, bbq, bars",34.063763,-118.296482,US,CA,Los Angeles,90020,
196,SqWYLEwZxJY7Et8w24lzjw,Crispy School,5.0,345,$$,"['delivery', 'pickup']",False,"Burgers, American (New)","burgers, newamerican",34.06410333,-118.283964,US,CA,Los Angeles,90057,"['delivery', 'pickup']"
197,2jE8MmJk1R3vfCz0roFwXQ,Seoul Pho,4.5,126,$$,"['delivery', 'pickup']",False,Vietnamese,vietnamese,34.06577,-118.30847,US,CA,Los Angeles,90020,"['delivery', 'pickup']"
198,HTFByVH44biQsc_R8sEOjg,BCD Tofu House,4.0,4368,$$,"['delivery', 'pickup']",False,Korean,korean,34.0620862485445,-118.302658449143,US,CA,Los Angeles,90010,"['delivery', 'pickup']"
199,LLj451UZrvt3SkZVrEZ4ew,MDK  Noodles,4.0,1265,$$,"['delivery', 'pickup']",False,"Korean, Noodles, Soup","korean, noodles, soup",34.0615549821861,-118.304317495701,US,CA,Los Angeles,90010,"['delivery', 'pickup']"
200,h1R2iKYdm2lwukzMJvJqDw,Hangari Kalguksu,4.5,1718,$$,"['delivery', 'pickup']",False,"Korean, Noodles","korean, noodles",34.0628602582049,-118.297570301258,US,CA,Los Angeles,90020,"['delivery', 'pickup']"
201,pjh40JY5YwWeV8aKhkXERg,Myungrang Hot Dog-California Market LA,4.5,862,$,['delivery'],False,Hot Dogs,hotdog,34.06577,-118.30847,US,CA,Los Angeles,90020,['delivery']
202,DrToq9357afdpOyO5w0Y5w,Yup Dduk LA,4.5,2086,$$,"['delivery', 'pickup']",False,Korean,korean,34.064009,-118.3007013,US,CA,Los Angeles,90020,"['delivery', 'pickup']"
203,JYGPEUZy4k5ObXGIjcD3DA,Hae Jang Chon Korean BBQ Restaurant,4.0,5023,$$,['delivery'],False,"Korean, Barbeque","korean, bbq",34.0638885,-118.3060754,US,CA,Los Angeles,90020,['delivery']
204,AIhWsp8yNfKZfaX9d9Yajg,Pasta Sisters,4.5,1557,$$,"['delivery', 'pickup']",False,"Delis, Italian","delis, italian",34.0476,-118.317234,US,CA,Los Angeles,90019,"['delivery', 'pickup']"
205,uzAbw27XQTXTivjgf2bN2w,Han Bat Sul Lung Tang,4.5,2281,$$,['delivery'],False,"Korean, Comfort Food, Soup","korean, comfortfood, soup",34.065414,-118.3095703125,US,CA,Los Angeles,90020,['delivery']
206,MlmcOkwaNnxl3Zuk6HsPCQ,Slurpin' Ramen Bar - Los Angeles,4.5,4599,$$,"['delivery', 'pickup']",False,"Ramen, Noodles","ramen, noodles",34.0573614429986,-118.306769744705,US,CA,Los Angeles,90005,"['delivery', 'pickup']"
207,IzRINfSLBr6k_dq1e2WNew,Guelaguetza Restaurante,4.0,2320,$$,"['delivery', 'pickup', 'restaurant_reservation']",False,Mexican,mexican,34.05241,-118.30071,US,CA,Los Angeles,90006,"['delivery', 'pickup', 'restaurant_reservation']"
208,PlQjtbZKOw7exAUfrswhNQ,The Kimbap,4.5,597,$,['delivery'],False,Korean,korean,34.06696,-118.30871,US,CA,Los Angeles,90020,['delivery']
209,5K-jAlFfFX1nnaeT8zsufw,Pollo a La Brasa Western,4.0,849,$$,[],False,"Latin American, Peruvian, Chicken Shop","latin, peruvian, chickenshop",34.057823,-118.308776,US,CA,Los Angeles,90005,
210,RVbZaawgEGmto6TxOoVBdQ,Running Goose,4.5,1079,$$,"['pickup', 'restaurant_reservation']",False,"Tapas/Small Plates, Gastropubs, Latin American","tapasmallplates, gastropubs, latin",34.10052,-118.32927,US,CA,Los Angeles,90028,"['pickup', 'restaurant_reservation']"
211,1ZEUvoDlg7ixlwwlK2a3mQ,Ha Sun Saeng - Master Ha,4.5,368,$$,"['delivery', 'pickup']",False,"Korean, Live/Raw Food, Seafood","korean, raw_food, seafood",34.0497189,-118.3091849,US,CA,Los Angeles,90006,"['delivery', 'pickup']"
212,LLj451UZrvt3SkZVrEZ4ew,MDK  Noodles,4.0,1265,$$,"['delivery', 'pickup']",False,"Korean, Noodles, Soup","korean, noodles, soup",34.0615549821861,-118.304317495701,US,CA,Los Angeles,90010,"['delivery', 'pickup']"
213,0SerWqGwzNWpTA2RBLVdUg,Sun Nong Dan,4.0,1688,$$,"['delivery', 'pickup']",False,"Korean, Soup","korean, soup",34.0630836857803,-118.297481238021,US,CA,Los Angeles,90020,"['delivery', 'pickup']"
214,jisjJNoV5jzfAMIYKn7y5A,Chef Kang Sul Box,4.5,164,$$,"['delivery', 'pickup']",False,"Korean, Gastropubs, Chicken Wings","korean, gastropubs, chicken_wings",34.061888,-118.311284,US,CA,Los Angeles,90010,"['delivery', 'pickup']"
215,qAAoilHU25Qr45FOQlA19g,Kang Ho-dong Baekjeong,4.5,4327,$$,"['delivery', 'pickup']",False,"Barbeque, Korean","bbq, korean",34.063765,-118.297262,US,CA,Los Angeles,90020,"['delivery', 'pickup']"
216,HTFByVH44biQsc_R8sEOjg,BCD Tofu House,4.0,4368,$$,"['delivery', 'pickup']",False,Korean,korean,34.0620862485445,-118.302658449143,US,CA,Los Angeles,90010,"['delivery', 'pickup']"
217,y4X0KfHJ5XWwxMIRukVr1Q,CHD,4.5,73,$$,"['delivery', 'pickup']",False,Korean,korean,34.06229367,-118.29757617,US,CA,Los Angeles,90010,"['delivery', 'pickup']"
218,6i7KnRylm4bhPIApDFSVCg,Dave's Hot Chicken,4.5,3380,$$,"['delivery', 'pickup']",False,"Chicken Shop, Halal","chickenshop, halal",34.0880681,-118.308962,US,CA,Los Angeles,90029,"['delivery', 'pickup']"
219,edhKYvJvIFgfREnUFewxiw,SYTK Sullungtang,0.0,0,,[],False,Korean,korean,34.053109,-118.292327,US,CA,Los Angeles,90006,
220,Dnn4_XmzQxOFNpnqh7KyWg,Seongbukdong,4.0,1123,$$,"['delivery', 'pickup']",False,Korean,korean,34.0637349,-118.2943728,US,CA,Los Angeles,90020,"['delivery', 'pickup']"
221,3C2wUqSkpY4-N0O5ArVjwQ,Yuk Dae Jang,4.5,569,$$,"['delivery', 'pickup']",False,"Korean, Comfort Food, Soup","korean, comfortfood, soup",34.0640411376953,-118.288063049316,US,CA,Los Angeles,90020,"['delivery', 'pickup']"
222,YKN48-eYsNe6gaP_cWXNuQ,Soseji,5.0,3,,[],False,"Food Stands, Barbeque, Korean","foodstands, bbq, korean",34.057898,-118.303352,US,CA,Los Angeles,90005,
223,SLxKy00itrk-ta8r8zCzTA,Easy Street Burgers,4.5,121,$,"['delivery', 'pickup']",False,Burgers,burgers,34.088796,-118.308573,US,CA,Los Angeles,90029,"['delivery', 'pickup']"
224,ho3kMMflXm9q9skQui4ioQ,Chef Kang Korean Taco,5.0,16,,[],False,"Korean, Tacos, Food Stands","korean, tacos, foodstands",34.061888,-118.311284,US,CA,Los Angeles,90010,
225,D9zxzPYoOnk6SG3ELkEnRg,CROQUÉ,5.0,2,,[],False,"Sandwiches, French, Fast Food","sandwiches, french, hotdogs",34.076286315918,-118.302085876465,US,CA,Los Angeles,90004,
226,GbAZbcCR969hfa4kCQqRcw,Eat This Cafe,4.5,1266,$$,"['delivery', 'pickup', 'restaurant_reservation']",False,"Breakfast & Brunch, Sandwiches, Salad","breakfast_brunch, sandwiches, salad",34.090825,-118.3323209,US,CA,Los Angeles,90038,"['delivery', 'pickup', 'restaurant_reservation']"
227,qCJ2LFfNbXYBIcjXNva1cA,Langer's Delicatessen,4.5,3835,$$,['delivery'],False,"Delis, Sandwiches","delis, sandwiches",34.05609,-118.27658,US,CA,Los Angeles,90057,['delivery']
228,UaxSpacBpGQrXv9Cytai2A,Woo Hyang Woo,5.0,96,,[],False,"Korean, Barbeque, Bars","korean, bbq, bars",34.063763,-118.296482,US,CA,Los Angeles,90020,
229,aVOeM9zGvIcyKuJWEMxc5w,Dave's Hot Chicken,4.0,329,$$,"['delivery', 'pickup']",False,Chicken Shop,chickenshop,34.06161,-118.29964,US,CA,Los Angeles,90010,"['delivery', 'pickup']"
230,TWHGJkTAbF22hvXeReQp9w,Kobawoo House,4.5,1234,$$,"['delivery', 'pickup']",False,"Korean, Soup, Seafood","korean, soup, seafood",34.060116,-118.291004,US,CA,Los Angeles,90005,"['delivery', 'pickup']"
231,2jE8MmJk1R3vfCz0roFwXQ,Seoul Pho,4.5,126,$$,"['delivery', 'pickup']",False,Vietnamese,vietnamese,34.06577,-118.30847,US,CA,Los Angeles,90020,"['delivery', 'pickup']"
232,-XwCatxfjyujeYbhh6ukrQ,Larchmont Village Wine Spirits & Cheese,4.5,937,$,['delivery'],False,"Beer, Wine & Spirits, Sandwiches, Cheese Shops","beer_and_wine, sandwiches, cheese",34.075313,-118.323881,US,CA,Los Angeles,90004,['delivery']
233,yQVPKXmDIUb6yH3MM8Q3nQ,Strada Eateria & Bar,5.0,354,$$,"['delivery', 'pickup', 'restaurant_reservation']",False,"Tapas/Small Plates, Bars, American (New)","tapasmallplates, bars, newamerican",34.046649,-118.2633746,US,CA,Los Angeles,90015,"['delivery', 'pickup', 'restaurant_reservation']"
234,H9ZlIqEp930ZRniH6VRp8w,Papa Cristo's,4.5,1962,$$,"['delivery', 'pickup']",False,"Greek, Mediterranean, Bakeries","greek, mediterranean, bakeries",34.0474029033579,-118.299641746033,US,CA,Los Angeles,90006,"['delivery', 'pickup']"
235,rr-hXB0ZqXLzUP97yftp0g,Osteria Mamma,4.0,1651,$$,"['delivery', 'pickup', 'restaurant_reservation']",False,"Italian, Wine Bars","italian, wine_bars",34.0833586783984,-118.324724939274,US,CA,Los Angeles,90038,"['delivery', 'pickup', 'restaurant_reservation']"
236,lx0ohxTwphu8CzOA4xz8-Q,FishPop,5.0,55,,[],False,"Fish & Chips, Pop-Up Restaurants","fishnchips, popuprestaurants",34.061383,-118.299717,US,CA,Los Angeles,90010,
237,bntaaduchQQiBI7Dt12Pgw,Thank U Pho,4.0,692,$,"['delivery', 'pickup']",False,Vietnamese,vietnamese,34.0572728932769,-118.307640589179,US,CA,Los Angeles,90005,"['delivery', 'pickup']"
238,SqWYLEwZxJY7Et8w24lzjw,Crispy School,5.0,345,$$,"['delivery', 'pickup']",False,"Burgers, American (New)","burgers, newamerican",34.06410333,-118.283964,US,CA,Los Angeles,90057,"['delivery', 'pickup']"
239,zC__7xADu7cWu-RE6P4Npg,Michin Dak,4.5,421,$$,"['delivery', 'pickup']",False,"Chicken Wings, Chicken Shop, Asian Fusion","chicken_wings, chickenshop, asianfusion",34.06322190046712,-118.29503683095368,US,CA,Los Angeles,90020,"['delivery', 'pickup']"
240,frRPjJ03Ie5h9EPhFhjNIw,Bulgogi Hut,4.5,2428,$$,"['delivery', 'pickup']",False,"Korean, Barbeque, Asian Fusion","korean, bbq, asianfusion",34.061564,-118.303271,US,CA,Los Angeles,90010,"['delivery', 'pickup']"
241,HvaKhiJtuLag0ZlXosYNUw,Twozone Chicken,4.5,231,$$,"['delivery', 'pickup']",False,"Chicken Shop, Chicken Wings","chickenshop, chicken_wings",34.057209,-118.307444,US,CA,Los Angeles,90005,"['delivery', 'pickup']"
242,BEItepse0gBSfkJ4sb_k-g,Hae Ha Heng Thai Bistro,4.5,1249,$$,"['delivery', 'pickup']",False,Thai,thai,34.06843993759294,-118.30946334676554,US,CA,Los Angeles,90020,"['delivery', 'pickup']"
243,ugtb8TqL2BgeSeLyB6hDyg,the quiet dumpling,5.0,11,,"['delivery', 'pickup']",False,Pop-Up Restaurants,popuprestaurants,34.095341,-118.294893,US,CA,Los Angeles,90029,"['delivery', 'pickup']"
244,m0OgyFfWE62eDf7kpSp-2w,Jopok Topokki,4.5,764,$$,['delivery'],False,Korean,korean,34.063898,-118.295755,US,CA,Los Angeles,90013,['delivery']
245,V3LOV2oYfCd6_a02z1-Z0A,Hwal A Kwang Jang,4.0,201,$$,['delivery'],False,"Korean, Seafood","korean, seafood",34.05871,-118.3087,US,CA,Los Angeles,90005,['delivery']
246,nxOmiITLYE3AdEqrSZIRDg,Young King,4.0,575,$$,['delivery'],False,"Chinese, Korean, Seafood","chinese, korean, seafood",34.05239,-118.30342,US,CA,Los Angeles,90006,['delivery']
247,vdA6RxwC8wrCrza0FSAt-w,Papi Tacos & Churros,4.0,428,,"['delivery', 'pickup']",False,Tacos,tacos,34.02531,-118.32445,US,CA,Los Angeles,90018,"['delivery', 'pickup']"
248,qCrSlf_TSVxITOYIBXGdJQ,Cannabis Cafe,3.5,678,,['delivery'],False,"Cannabis Dispensaries, Cafes","cannabisdispensaries, cafes",34.092688,-118.344421,US,CA,West Hollywood,90038,['delivery']
249,Wjckf5QPdVQw1ZG82zEarA,M Grill,4.5,2135,$$$,"['delivery', 'pickup']",False,"Brazilian, Steakhouses, Wine Bars","brazilian, steak, wine_bars",34.06142,-118.310424,US,CA,Los Angeles,90010,"['delivery', 'pickup']"
250,Grdvo0KHJ7iy_8GPY-iAuQ,Bondak,5.0,1,,[],False,"Korean, Chicken Shop","korean, chickenshop",34.0560001,-118.2914951,US,CA,Los Angeles,90005,
251,iqjA5r6w_bFB2R4hseqhhQ,Dino's Chicken and Burgers,4.0,2049,$,['delivery'],False,"Burgers, Mexican","burgers, mexican",34.047441,-118.293926,US,CA,Los Angeles,90006,['delivery']
252,edhKYvJvIFgfREnUFewxiw,SYTK Sullungtang,0.0,0,,[],False,Korean,korean,34.053109,-118.292327,US,CA,Los Angeles,90006,
253,H9ZlIqEp930ZRniH6VRp8w,Papa Cristo's,4.5,1962,$$,"['delivery', 'pickup']",False,"Greek, Mediterranean, Bakeries","greek, mediterranean, bakeries",34.0474029033579,-118.299641746033,US,CA,Los Angeles,90006,"['delivery', 'pickup']"
254,IzRINfSLBr6k_dq1e2WNew,Guelaguetza Restaurante,4.0,2320,$$,"['restaurant_reservation', 'delivery', 'pickup']",False,Mexican,mexican,34.05241,-118.30071,US,CA,Los Angeles,90006,"['restaurant_reservation', 'delivery', 'pickup']"
255,qCJ2LFfNbXYBIcjXNva1cA,Langer's Delicatessen,4.5,3835,$$,['delivery'],False,"Delis, Sandwiches","delis, sandwiches",34.05609,-118.27658,US,CA,Los Angeles,90057,['delivery']
256,b1jidrgK5asQBXQ0Y0cvvg,TGI Korean BBQ,4.5,540,$$,['restaurant_reservation'],False,"Korean, Barbeque, Asian Fusion","korean, bbq, asianfusion",34.05263,-118.28737,US,CA,Los Angeles,90006,['restaurant_reservation']
257,7gl5sUrW3m9_Vf5rXrt7cQ,The Boiling Crab - To Go,4.0,204,$$,[],False,"Seafood, Cajun/Creole","seafood, cajun",34.0622606,-118.2975594,US,CA,Los Angeles,90010,
258,AIhWsp8yNfKZfaX9d9Yajg,Pasta Sisters,4.5,1557,$$,"['delivery', 'pickup']",False,"Delis, Italian","delis, italian",34.0476,-118.317234,US,CA,Los Angeles,90019,"['delivery', 'pickup']"
259,1xe7ikU6Tr4Om5fGqRWsHg,El Colmao,4.0,245,$$,['delivery'],False,Cuban,cuban,34.04693,-118.2873865,US,CA,Los Angeles,90006,['delivery']
260,pjh40JY5YwWeV8aKhkXERg,Myungrang Hot Dog-California Market LA,4.5,862,$,['delivery'],False,Hot Dogs,hotdog,34.06577,-118.30847,US,CA,Los Angeles,90020,['delivery']
261,sHMQqLZqaMCZa5ICqpGiNg,Crab House,4.0,217,$$,['delivery'],False,"Korean, Seafood, Live/Raw Food","korean, seafood, raw_food",34.055076,-118.291856,US,CA,Los Angeles,90006,['delivery']
262,aVOeM9zGvIcyKuJWEMxc5w,Dave's Hot Chicken,4.0,329,$$,"['delivery', 'pickup']",False,Chicken Shop,chickenshop,34.06161,-118.29964,US,CA,Los Angeles,90010,"['delivery', 'pickup']"
263,tsTSRkA9Vv6lAT0w3fOS_w,Pollos El Brasero,4.5,129,$$,['delivery'],False,"Peruvian, Chicken Shop","peruvian, chickenshop",34.0474149,-118.2861957,US,CA,Los Angeles,90006,['delivery']
264,0z23Jk7U_MpvtqKINPL2fA,Dirt Dog,4.5,2263,$,"['delivery', 'pickup']",False,"Hot Dogs, Beer Bar","hotdog, beerbar",34.0282923762355,-118.275208244705,US,CA,Los Angeles,90007,"['delivery', 'pickup']"
265,h1R2iKYdm2lwukzMJvJqDw,Hangari Kalguksu,4.5,1718,$$,"['delivery', 'pickup']",False,"Korean, Noodles","korean, noodles",34.0628602582049,-118.297570301258,US,CA,Los Angeles,90020,"['delivery', 'pickup']"
266,borw1LsTQAwaCIoNoa35bw,Oh My Crab,4.0,165,$$,"['delivery', 'pickup']",False,"Seafood, Cajun/Creole","seafood, cajun",34.06355,-118.28741,US,CA,Los Angeles,90020,"['delivery', 'pickup']"
267,TWHGJkTAbF22hvXeReQp9w,Kobawoo House,4.5,1234,$$,"['delivery', 'pickup']",False,"Korean, Soup, Seafood","korean, soup, seafood",34.060116,-118.291004,US,CA,Los Angeles,90005,"['delivery', 'pickup']"
268,eIip70AtYPjJsC4kh1uTjg,Neri's,4.0,256,$,"['delivery', 'pickup']",False,Filipino,filipino,34.06204,-118.2977,US,CA,Los Angeles,90010,"['delivery', 'pickup']"
269,SqWYLEwZxJY7Et8w24lzjw,Crispy School,5.0,345,$$,"['delivery', 'pickup']",False,"Burgers, American (New)","burgers, newamerican",34.06410333,-118.283964,US,CA,Los Angeles,90057,"['delivery', 'pickup']"
270,fBLnD9qxQggvDSPyOBsBLg,Ong Ga Nae Korean BBQ,4.5,532,$$,"['restaurant_reservation', 'delivery']",False,"Korean, Barbeque","korean, bbq",34.0546201,-118.2914951,US,CA,Los Angeles,90006,"['restaurant_reservation', 'delivery']"
271,PlQjtbZKOw7exAUfrswhNQ,The Kimbap,4.5,597,$,['delivery'],False,Korean,korean,34.06696,-118.30871,US,CA,Los Angeles,90020,['delivery']
272,d09ros9QhLRs9EgWbkkvvg,Caveman Kitchen,4.0,485,$$,"['delivery', 'pickup']",False,"Latin American, Burgers, Peruvian","latin, burgers, peruvian",34.0359554,-118.2920263,US,CA,Los Angeles,90007,"['delivery', 'pickup']"
273,A8ad1UI4bZ7j4Gv_NDAcog,Fire Chicken,4.5,120,$$,"['delivery', 'pickup']",False,Chicken Shop,chickenshop,34.05753083,-118.29523217,US,CA,Los Angeles,90005,"['delivery', 'pickup']"
274,Gj-j5-PKMwiEgLcnAbXl5g,Conchitas Restaurant,4.0,130,$,['delivery'],False,Salvadoran,salvadoran,34.0471321,-118.2941347,US,CA,Los Angeles,90006,['delivery']
275,DrToq9357afdpOyO5w0Y5w,Yup Dduk LA,4.5,2086,$$,"['delivery', 'pickup']",False,Korean,korean,34.064009,-118.3007013,US,CA,Los Angeles,90020,"['delivery', 'pickup']"
276,18zgUgvXXL5AJ74DxCG0OQ,Mateo's Ice Cream & Fruit Bars,4.5,294,$,[],False,"Ice Cream & Frozen Yogurt, Juice Bars & Smoothies, Sandwiches","icecream, juicebars, sandwiches",34.047767,-118.2910173,US,CA,Los Angeles,90006,
277,1ZEUvoDlg7ixlwwlK2a3mQ,Ha Sun Saeng - Master Ha,4.5,368,$$,"['delivery', 'pickup']",False,"Korean, Live/Raw Food, Seafood","korean, raw_food, seafood",34.0497189,-118.3091849,US,CA,Los Angeles,90006,"['delivery', 'pickup']"
278,uzAbw27XQTXTivjgf2bN2w,Han Bat Sul Lung Tang,4.5,2281,$$,['delivery'],False,"Korean, Comfort Food, Soup","korean, comfortfood, soup",34.065414,-118.3095703125,US,CA,Los Angeles,90020,['delivery']
279,MlmcOkwaNnxl3Zuk6HsPCQ,Slurpin' Ramen Bar - Los Angeles,4.5,4599,$$,"['delivery', 'pickup']",False,"Ramen, Noodles","ramen, noodles",34.0573614429986,-118.306769744705,US,CA,Los Angeles,90005,"['delivery', 'pickup']"
280,0SerWqGwzNWpTA2RBLVdUg,Sun Nong Dan,4.0,1688,$$,"['delivery', 'pickup']",False,"Korean, Soup","korean, soup",34.0630836857803,-118.297481238021,US,CA,Los Angeles,90020,"['delivery', 'pickup']"
281,3C2wUqSkpY4-N0O5ArVjwQ,Yuk Dae Jang,4.5,569,$$,"['delivery', 'pickup']",False,"Korean, Comfort Food, Soup","korean, comfortfood, soup",34.0640411376953,-118.288063049316,US,CA,Los Angeles,90020,"['delivery', 'pickup']"
282,Dnn4_XmzQxOFNpnqh7KyWg,Seongbukdong,4.0,1123,$$,"['delivery', 'pickup']",False,Korean,korean,34.0637349,-118.2943728,US,CA,Los Angeles,90020,"['delivery', 'pickup']"
283,7FI5FtEVMb6LNoHYTYbncA,Wi Korean BBQ,4.5,388,$$,[],False,"Korean, Barbeque","korean, bbq",34.0504565917164,-118.291966772201,US,CA,Los Angeles,90006,
284,cywwDn2SYCoef0PUYOXygw,La Pupusa Urban Eatery,4.5,299,$$,"['delivery', 'pickup']",False,Salvadoran,salvadoran,34.03876,-118.28075,US,CA,Los Angeles,90015,"['delivery', 'pickup']"
285,S8rXjn2aMaoONx468cWRag,Jang Choong Dong JokBal,4.0,56,$$,[],False,Korean,korean,34.0521579914556,-118.2921982,US,CA,Los Angeles,90006,
286,HTFByVH44biQsc_R8sEOjg,BCD Tofu House,4.0,4368,$$,"['delivery', 'pickup']",False,Korean,korean,34.0620862485445,-118.302658449143,US,CA,Los Angeles,90010,"['delivery', 'pickup']"
287,lx0ohxTwphu8CzOA4xz8-Q,FishPop,5.0,55,,[],False,"Fish & Chips, Pop-Up Restaurants","fishnchips, popuprestaurants",34.061383,-118.299717,US,CA,Los Angeles,90010,
288,nxOmiITLYE3AdEqrSZIRDg,Young King,4.0,575,$$,['delivery'],False,"Chinese, Korean, Seafood","chinese, korean, seafood",34.05239,-118.30342,US,CA,Los Angeles,90006,['delivery']
289,U7-UBPHK44Y_9wyfOmuHuA,The Boiling Crab,4.0,2350,$$,['delivery'],False,"Seafood, Cajun/Creole","seafood, cajun",34.0624249247685,-118.297670715344,US,CA,Los Angeles,90010,['delivery']
290,k2dhvRV0gtPoDWLuH2OMTQ,ACA Grill,4.5,471,$$,"['delivery', 'pickup']",False,"Argentine, Barbeque, Empanadas","argentine, bbq, empanadas",34.0574375,-118.2937431,US,CA,Los Angeles,90005,"['delivery', 'pickup']"
291,n47wKEAeTh86dqiQOLrigQ,Gam Ja Gol,4.0,417,$$,['delivery'],False,Korean,korean,34.0527649,-118.30033,US,CA,Los Angeles,90006,['delivery']
292,jCDnwiF2JN5OBbzwlrWuhA,Myung In Dumplings,4.0,781,$,['delivery'],False,"Korean, Specialty Food","korean, gourmet",34.05293,-118.30352,US,CA,Los Angeles,90006,['delivery']
293,y4X0KfHJ5XWwxMIRukVr1Q,CHD,4.5,73,$$,"['delivery', 'pickup']",False,Korean,korean,34.06229367,-118.29757617,US,CA,Los Angeles,90010,"['delivery', 'pickup']"
294,V5VTdQ4WDLB5fF7Cj4ykEQ,Wings N Stuff,4.5,71,,['delivery'],False,Chicken Wings,chicken_wings,34.05239,-118.3049,US,CA,Los Angeles,90006,['delivery']
295,JYGPEUZy4k5ObXGIjcD3DA,Hae Jang Chon Korean BBQ Restaurant,4.0,5023,$$,['delivery'],False,"Korean, Barbeque","korean, bbq",34.0638885,-118.3060754,US,CA,Los Angeles,90020,['delivery']
296,Q-D5cCogjnTv7ELUI-Cz8Q,Simply Pho You,4.0,854,$,['delivery'],False,Vietnamese,vietnamese,34.060115814209,-118.291275024414,US,CA,Los Angeles,90005,['delivery']
297,m0OgyFfWE62eDf7kpSp-2w,Jopok Topokki,4.5,764,$$,['delivery'],False,Korean,korean,34.063898,-118.295755,US,CA,Los Angeles,90013,['delivery']
298,qAAoilHU25Qr45FOQlA19g,Kang Ho-dong Baekjeong,4.5,4327,$$,"['delivery', 'pickup']",False,"Barbeque, Korean","bbq, korean",34.063765,-118.297262,US,CA,Los Angeles,90020,"['delivery', 'pickup']"
299,X9KlLFQGSgC0A-q-p1Hu6Q,Egg Tuck,4.5,413,$,"['delivery', 'pickup']",False,"Breakfast & Brunch, Coffee & Tea, Sandwiches","breakfast_brunch, coffee, sandwiches",34.0613285,-118.2999717,US,CA,Los Angeles,90010,"['delivery', 'pickup']"
300,RAzUPIaCuqufZoPV9gwzUQ,Honeybird,4.0,150,$$,['delivery'],False,"Southern, Chicken Shop, Desserts","southern, chickenshop, desserts",34.024758,-118.284446,US,CA,Los Angeles,90007,['delivery']
301,yQVPKXmDIUb6yH3MM8Q3nQ,Strada Eateria & Bar,5.0,354,$$,"['restaurant_reservation', 'delivery', 'pickup']",False,"Tapas/Small Plates, Bars, American (New)","tapasmallplates, bars, newamerican",34.046649,-118.2633746,US,CA,Los Angeles,90015,"['restaurant_reservation', 'delivery', 'pickup']"
302,0z23Jk7U_MpvtqKINPL2fA,Dirt Dog,4.5,2263,$,"['delivery', 'pickup']",False,"Hot Dogs, Beer Bar","hotdog, beerbar",34.0282923762355,-118.275208244705,US,CA,Los Angeles,90007,"['delivery', 'pickup']"
303,m_Mb47u9F_G8NR0Fmg6GRg,CAVA,4.0,219,$$,['delivery'],False,"Mediterranean, Salad","mediterranean, salad",34.0248553,-118.2845176,US,CA,Los Angeles,90089,['delivery']
304,Mi72K5ZUWKDw6YXmRZNpSg,Rock and Reilly's USC Village,4.0,173,$$,"['restaurant_reservation', 'pickup', 'delivery']",False,"Sports Bars, Gastropubs, Irish Pub","sportsbars, gastropubs, irish_pubs",34.0247522500497,-118.28428332887,US,CA,Los Angeles,90007,"['restaurant_reservation', 'pickup', 'delivery']"
305,i6opHMcHFaMU905pRhRcYg,Ono Hawaiian BBQ,3.0,171,$,"['delivery', 'pickup']",False,"Barbeque, Hawaiian","bbq, hawaiian",34.0245637,-118.2780347,US,CA,Los Angeles,90007,"['delivery', 'pickup']"
306,WcYCPSe3WaIggnsz5NnRgw,Oceana Seafood,4.0,49,$$,['delivery'],False,Seafood,seafood,34.0257771,-118.2841401,US,CA,Los Angeles,90020,['delivery']
307,0fvsF6mV5DqyQJb_cc6V3Q,Dulce,4.5,224,$$,['delivery'],False,"Coffee & Tea, Desserts, Cafes","coffee, desserts, cafes",34.025354,-118.285446,US,CA,Los Angeles,90007,['delivery']
308,8RXJiao_twvDmzDAqwkw6w,KOBUNGA,4.5,172,$$,"['delivery', 'pickup']",False,"Korean, Barbeque","korean, bbq",34.025032,-118.285465,US,CA,Los Angeles,90089,"['delivery', 'pickup']"
309,FK2gwXlaA8Dpu9ufxgIXzA,Il Giardino,4.5,52,$$,"['delivery', 'pickup']",False,"Italian, Salad, Sandwiches","italian, salad, sandwiches",34.0257771,-118.2841401,US,CA,Los Angeles,90089,"['delivery', 'pickup']"
310,6w7A4JOwwsUka_DhZFFIDA,Monty’s Chicken & Waffles,4.5,81,,"['delivery', 'pickup']",False,"Waffles, Sandwiches, Chicken Shop","waffles, sandwiches, chickenshop",34.0148676008897,-118.278790867221,US,CA,Los Angeles,90037,"['delivery', 'pickup']"
311,d09ros9QhLRs9EgWbkkvvg,Caveman Kitchen,4.0,485,$$,"['delivery', 'pickup']",False,"Latin American, Burgers, Peruvian","latin, burgers, peruvian",34.0359554,-118.2920263,US,CA,Los Angeles,90007,"['delivery', 'pickup']"
312,1lxtw52CJ9ip6VqQCzt2Fw,The Burrow,5.0,280,$$,"['restaurant_reservation', 'delivery', 'pickup']",False,"Sandwiches, Cocktail Bars, Gastropubs","sandwiches, cocktailbars, gastropubs",34.04701,-118.26082,US,CA,Los Angeles,90017,"['restaurant_reservation', 'delivery', 'pickup']"
313,pJSSNzBqsjboBv4IEFOLFQ,The Stanton DTLA,4.5,63,$$,['restaurant_reservation'],False,American (New),newamerican,34.0425613,-118.262964,US,CA,Los Angeles,90015,['restaurant_reservation']
314,j7zBQ2dfP5QDVH8n33X9cg,Qin West Noodle,4.0,72,$,['delivery'],False,"Chinese, Noodles","chinese, noodles",34.0284352846134,-118.275783478992,US,CA,Los Angeles,90007,['delivery']
315,mQMCi60kT3UeVuDiOckG_w,Tracey's Belizean Restaurant,4.5,130,$$,[],False,Caribbean,caribbean,34.0169944,-118.308632,US,CA,Los Angeles,90062,
316,c7xLlX7RjxD0WUcl2sm4Lw,Faith & Flower,4.0,2529,$$$,"['delivery', 'pickup']",False,"American (New), Cocktail Bars","newamerican, cocktailbars",34.046195,-118.261698,US,CA,Los Angeles,90015,"['delivery', 'pickup']"
317,dQI2N7qVsjrQ4BxnyR0pHg,Wahlburgers,3.5,232,$$,[],False,"Burgers, American (Traditional)","burgers, tradamerican",34.024382,-118.284864,US,CA,Los Angeles,90007,
318,cywwDn2SYCoef0PUYOXygw,La Pupusa Urban Eatery,4.5,299,$$,"['delivery', 'pickup']",False,Salvadoran,salvadoran,34.03876,-118.28075,US,CA,Los Angeles,90015,"['delivery', 'pickup']"
319,LruRPzJ1nOS3_04LV1HAUA,Mr Fries Man,3.5,11,,[],False,Barbeque,bbq,34.014396,-118.282481,US,CA,Los Angeles,90037,
320,DcY18Ky6gAy_aikVOwTmGQ,Mee Dee Thai Kitchen,5.0,5,,"['delivery', 'pickup']",False,"Thai, Noodles","thai, noodles",34.014673,-118.278658,US,CA,Los Angeles,90037,"['delivery', 'pickup']"
321,BonZ748EKm8pwtVQalFpYQ,Jacks N Joe,4.0,2100,$$,['delivery'],False,"Breakfast & Brunch, American (New)","breakfast_brunch, newamerican",34.02876,-118.27517,US,CA,Los Angeles,90007,['delivery']
322,4lf6VPVwHR92favXJfpvlQ,Thai By Trio,4.0,155,$$,"['delivery', 'pickup']",False,Thai,thai,34.02688,-118.27618,US,CA,Los Angeles,90007,"['delivery', 'pickup']"
323,Fs7lKMANuifCyDjF99opRA,Chick-fil-A,3.5,473,$,[],False,Fast Food,hotdogs,34.0166393,-118.2825753,US,CA,Los Angeles,90007,
324,ZRL5cGW9cQZrz7ye-nbAzQ,Wingstop,3.0,87,$,['delivery'],False,Chicken Wings,chicken_wings,34.01866,-118.28157,US,CA,Los Angeles,90007,['delivery']
325,FQT1DQVA0QwhEDs2i-ZNDA,Monarca Pasta & Grill,4.5,154,$,['delivery'],False,Italian,italian,34.0302958095499,-118.292084693909,US,CA,Los Angeles,90007,['delivery']
326,tz4wk8HrZ6J7ed26HhKO7Q,Frydays Hot Chicken,5.0,8,,[],False,Pop-Up Restaurants,popuprestaurants,34.0324001,-118.2903365,US,CA,Los Angeles,90007,
327,H9ZlIqEp930ZRniH6VRp8w,Papa Cristo's,4.5,1962,$$,"['delivery', 'pickup']",False,"Greek, Mediterranean, Bakeries","greek, mediterranean, bakeries",34.0474029033579,-118.299641746033,US,CA,Los Angeles,90006,"['delivery', 'pickup']"
328,ImWjgRhcohdWYTPUt4iaZw,Bo Daddy’s BBQ,4.5,207,$$,"['delivery', 'pickup']",False,Barbeque,bbq,34.0357902466995,-118.263903692454,US,CA,Los Angeles,90015,"['delivery', 'pickup']"
329,iqjA5r6w_bFB2R4hseqhhQ,Dino's Chicken and Burgers,4.0,2049,$,['delivery'],False,"Burgers, Mexican","burgers, mexican",34.047441,-118.293926,US,CA,Los Angeles,90006,['delivery']
330,93Svns_JtCP3__wxlcSsbg,Prank,4.0,827,$$,"['delivery', 'pickup']",False,"Cocktail Bars, American (Traditional), Breakfast & Brunch","cocktailbars, tradamerican, breakfast_brunch",34.042005,-118.263016,US,CA,Los Angeles,90015,"['delivery', 'pickup']"
331,yMJpttJxzObbbRh0ekawmQ,Birrieria Los Gonzalez,4.0,212,$,[],False,Mexican,mexican,34.02362,-118.26508,US,CA,Los Angeles,90011,
332,VX3n_CD4Jl0YL8bNyR1Nng,C J Boyd's Fried Chicken,4.5,22,$$,['delivery'],False,Sandwiches,sandwiches,34.013057,-118.285383,US,CA,Los Angeles,90037,['delivery']
333,FBRxoQSWtziiU_A5tscVGA,La Barca Restaurant,4.0,879,$$,['delivery'],False,Mexican,mexican,34.0339201576781,-118.29148504989,US,CA,Los Angeles,90007,['delivery']
334,qpZCi8oVqxOA_YSIaCaMnw,Northern Cafe,3.5,273,$$,"['delivery', 'pickup']",False,"Noodles, Chinese","noodles, chinese",34.0255178,-118.2775239,US,CA,Los Angeles,90007,"['delivery', 'pickup']"
335,CLcJ1BVd7zsh9wnnYOjF7w,Chop Chop Chicken,4.5,27,,"['delivery', 'pickup']",False,"Asian Fusion, Mediterranean, Salad","asianfusion, mediterranean, salad",34.028358,-118.275055,US,CA,Los Angeles,90007,"['delivery', 'pickup']"
336,71jANDdx-C9tugAOZIKj7w,Pilot,4.0,174,,['delivery'],False,"Bars, Mediterranean","bars, mediterranean",34.03973,-118.25852,US,CA,Los Angeles,90015,['delivery']
337,-5TFq3V--bffJGW000YuGQ,Holbox,5.0,390,$$,"['delivery', 'pickup']",False,"Latin American, Seafood, Mexican","latin, seafood, mexican",34.0171789745852,-118.278350606561,US,CA,Los Angeles,90007,"['delivery', 'pickup']"
338,g4sVZyJaj6q5piIX8gkquw,El Sazon K-Tracho #2,4.5,40,$$,['delivery'],False,Honduran,honduran,34.0328949,-118.2938637,US,CA,Los Angeles,90007,['delivery']
339,vfHJzF0ShYtwmotXE-0PiA,Figueroa Philly Cheesesteak,4.5,1131,$$,"['delivery', 'pickup']",False,"Cheesesteaks, Sandwiches, Breakfast & Brunch","cheesesteaks, sandwiches, breakfast_brunch",34.01418,-118.282428,US,CA,Los Angeles,90037,"['delivery', 'pickup']"
340,3IoIViOW1W38eQOPWm0_DA,Ebaes,4.0,770,$$,"['delivery', 'pickup']",False,"Tapas/Small Plates, Ramen, Sushi Bars","tapasmallplates, ramen, sushi",34.0344536304474,-118.283669427037,US,CA,Los Angeles,90007,"['delivery', 'pickup']"
341,MngSqXZbc4-x8lZTby1SrA,Himalayan House,4.0,327,$$,"['delivery', 'pickup']",False,"Indian, Himalayan/Nepalese","indpak, himalayan",34.0256549,-118.294352,US,CA,Los Angeles,90007,"['delivery', 'pickup']"
342,rQEMhSKknt-sDHjqwSC3Xg,Lowkey Burrito,5.0,34,$,[],False,"Mexican, Food Stands","mexican, foodstands",34.04149,-118.26496,US,CA,Los Angeles,90015,
343,_lrLfLy3e2jr-zGigfFW4A,Revolutionario: North African Tacos,4.5,548,$,['delivery'],False,"African, Mexican, Halal","african, mexican, halal",34.02523,-118.29857,US,CA,Los Angeles,90007,['delivery']
344,BS6hEbAg7y4ELeWFFgCBPQ,Lemonade,3.5,186,$$,[],False,American (New),newamerican,34.0202225,-118.2856428,US,CA,Los Angeles,90089,
345,O0xszdHsAf5k4wqyLiz0xA,Pad Thai Diva,4.5,9,,['delivery'],False,Thai,thai,34.0148676008897,-118.278790867221,US,CA,Los Angeles,90037,['delivery']
346,-ZXiF1DfjUt2_e-OkjM_Tg,Ramen Kenjo,4.0,103,$$,"['delivery', 'pickup']",False,"Ramen, Noodles, Soup","ramen, noodles, soup",34.0247431,-118.285642,US,CA,Los Angeles,90089,"['delivery', 'pickup']"
347,Emurmrl9E3vOXmiEcq3qkw,Bird's Nest Cafe,4.0,785,$$,"['delivery', 'pickup']",False,"Cafes, Breakfast & Brunch, Burgers","cafes, breakfast_brunch, burgers",34.0344334,-118.2916849,US,CA,Los Angeles,90007,"['delivery', 'pickup']"
348,YDjMP9kAom06N8vcySOtxA,Ahipoki Bowl,3.5,173,$$,"['delivery', 'pickup']",False,"Seafood, Hawaiian","seafood, hawaiian",34.0160389244556,-118.282705843449,US,CA,Los Angeles,90007,"['delivery', 'pickup']"
349,KN4dbEU1TFbRhehvi_xV0g,Cow Cafe,4.5,151,$$,"['delivery', 'pickup']",False,"Cafes, Mediterranean","cafes, mediterranean",34.0387116497577,-118.264252936783,US,CA,Los Angeles,90015,"['delivery', 'pickup']"
350,znoEE4b4_AnbjejPehM8Mw,Hotville Chicken,4.0,257,$$,['delivery'],False,Chicken Shop,chickenshop,34.010694,-118.338889,US,CA,Los Angeles,90008,['delivery']
351,KOeuULPL0ZrIqfVU_Zcyhw,Mike's Deli,4.5,880,$$,['delivery'],False,"Delis, Salad, Sandwiches","delis, salad, sandwiches",33.9880055506272,-118.362671546638,US,CA,Los Angeles,90056,['delivery']
352,vdA6RxwC8wrCrza0FSAt-w,Papi Tacos & Churros,4.0,428,,"['pickup', 'delivery']",False,Tacos,tacos,34.02531,-118.32445,US,CA,Los Angeles,90018,"['pickup', 'delivery']"
353,5JVi9TYevK6NIzbZpg2cIg,Off Da Hook Fish House,4.5,25,,"['pickup', 'delivery']",False,Fish & Chips,fishnchips,33.98886,-118.33242,US,CA,Windsor Hills,90043,"['pickup', 'delivery']"
354,DYmSjWNUbU5tyo_gQ7PO5g,Mizlala,4.5,323,$$,['delivery'],False,"Falafel, Middle Eastern","falafel, mideastern",34.03221,-118.36072,US,CA,Los Angeles,90016,['delivery']
355,IbSO3urVCNUsis_yKNYvUQ,Orleans & York Deli,4.0,730,$$,"['pickup', 'delivery']",False,"Cajun/Creole, American (Traditional), Sandwiches","cajun, tradamerican, sandwiches",33.988497,-118.3537791,US,CA,Los Angeles,90043,"['pickup', 'delivery']"
356,_m17RWLoKvoE1vkcu1mocA,Sunday Gravy,5.0,159,$$,['delivery'],False,"Pasta Shops, Italian","pastashops, italian",33.9766,-118.35857,US,CA,Inglewood,90302,['delivery']
357,2dbet2fb_wY_zkDMCm2j0g,Firehouse Subs,4.5,6,,[],False,"Sandwiches, Delis, Fast Food","sandwiches, delis, hotdogs",33.988059,-118.3661,US,CA,Los Angeles,90056,
358,uPeWc6p4KLMHRve4OlLVEg,Cafe Creole,4.0,212,$$,"['pickup', 'delivery']",False,"Cajun/Creole, Southern, Soul Food","cajun, southern, soulfood",34.0109188033204,-118.336652624824,US,CA,Los Angeles,90008,"['pickup', 'delivery']"
359,1xNQduoGeXOwp-06VneKeA,The Serving Spoon,4.5,1973,$$,"['pickup', 'delivery']",False,"Breakfast & Brunch, Soul Food","breakfast_brunch, soulfood",33.9762855538483,-118.363437652588,US,CA,Inglewood,90302,"['pickup', 'delivery']"
360,lq1Vy1ytvDuioPdvFSd4wA,The Kickin' Crab - Los Angeles,3.0,297,$$,['delivery'],False,"Seafood, Cajun/Creole","seafood, cajun",34.009272,-118.338765,US,CA,Los Angeles,90008,['delivery']
361,mQMCi60kT3UeVuDiOckG_w,Tracey's Belizean Restaurant,4.5,130,$$,[],False,Caribbean,caribbean,34.0169944,-118.308632,US,CA,Los Angeles,90062,
362,fDIERa8MupwJMTJ97upAPg,Ackee Bamboo Jamaican Cuisine,4.0,392,$$,['delivery'],False,Caribbean,caribbean,34.00574,-118.33183,US,CA,Los Angeles,90008,['delivery']
363,MaTdiM8HBOdg95cJRv7Gyg,Big Dees,4.5,6,,[],False,"Soul Food, Barbeque","soulfood, bbq",33.989296,-118.339678,US,CA,Los Angeles,90043,
364,4ZmXcttDdx9KRGUi6tMWFQ,Dulan's On Crenshaw,4.0,669,$$,"['pickup', 'delivery']",False,Soul Food,soulfood,33.9984983,-118.3311944,US,CA,Los Angeles,90043,"['pickup', 'delivery']"
365,ZKltkN5lOxH1tLeVAO2b6A,Destroyer,4.5,439,$$,['delivery'],False,American (New),newamerican,34.02452,-118.38107,US,CA,Culver City,90232,['delivery']
366,6DEuqc82zAMe-C4MOLqHcQ,Simply Wholesome,4.0,841,$$,['delivery'],False,"Soul Food, Caribbean, Vegetarian","soulfood, caribbean, vegetarian",33.9886372,-118.354468,US,CA,Los Angeles,90043,['delivery']
367,AGyxcozRYuFPpRD-nBRu0Q,Pasta Sisters - Culver City,4.0,1336,$$,"['pickup', 'delivery']",False,"Italian, Wine Bars","italian, wine_bars",34.030029,-118.383983,US,CA,Culver City,90232,"['pickup', 'delivery']"
368,rYPQv2bCk2orpbHCBfY5Uw,Johnny's West Adams,4.0,158,,"['pickup', 'delivery']",False,"Sandwiches, Burgers, Delis","sandwiches, burgers, delis",34.032853,-118.33292,US,CA,Los Angeles,90018,"['pickup', 'delivery']"
369,6Dd4kTDiikEB3wQp___0fA,Taqueria Los Anaya,4.5,1219,$$,[],False,Mexican,mexican,34.0327911,-118.3417282,US,CA,Los Angeles,90016,
370,mhV6ajue2eUPVWMULH9Jxg,The Bombay Frankie Company,4.5,755,$$,"['pickup', 'delivery']",False,Indian,indpak,33.986645,-118.392915,US,CA,Culver City,90230,"['pickup', 'delivery']"
371,gxrQw6uNbO7AYMykhePHAQ,The Ivy,3.5,2002,$$$,['delivery'],False,American (New),newamerican,34.0756,-118.3838849,US,CA,Los Angeles,90048,['delivery']
372,3iiCCk6IePr1w4UGg143BA,Cluckin Bun,4.5,226,$$,"['pickup', 'delivery']",False,Chicken Shop,chickenshop,33.9610399,-118.3754816,US,CA,Inglewood,90301,"['pickup', 'delivery']"
373,w0EIyZ4hxrVIOFglau71eg,Giti Thai,4.0,30,,"['pickup', 'delivery']",False,Thai,thai,33.9892105,-118.3527237,US,CA,Windsor Hills,90043,"['pickup', 'delivery']"
374,K8JWSdSz_IYyjGvv0RSBiA,Citizen Public Market,4.0,7,,[],False,Food Court,food_court,34.025087,-118.394109,US,CA,Culver City,90232,
375,E9WhBvGEUK4mQxoReDcG3g,The Seafood Xperience,4.0,105,$$,"['pickup', 'delivery']",False,Seafood,seafood,33.974557,-118.315862,US,CA,Los Angeles,90047,"['pickup', 'delivery']"
376,qh32cXO75I-MzXZ3oYB8dw,Ronnie's Kickin,4.5,51,,['delivery'],False,"Comfort Food, Food Trucks","comfortfood, foodtrucks",34.02334,-118.33095,US,CA,Los Angeles,90018,['delivery']
377,ITNAxP_RUZ_FCPFNt7pjmw,Earle's On Crenshaw,4.5,463,$,"['pickup', 'delivery']",False,"Hot Dogs, Burgers, Vegan","hotdog, burgers, vegan",34.0156233070285,-118.334755915362,US,CA,Los Angeles,90008,"['pickup', 'delivery']"
378,nI1Bk_OqAkARO-siTQbuTw,Crustees Eatery,5.0,124,,"['pickup', 'delivery']",False,"Desserts, Bakeries, Comfort Food","desserts, bakeries, comfortfood",33.9886408,-118.3533352,US,CA,Los Angeles,90043,"['pickup', 'delivery']"
379,lC1ZQiF8QrTqAWIz_zWAOw,dan modern chinese,4.5,32,,"['pickup', 'delivery']",False,"Chinese, Noodles, Taiwanese","chinese, noodles, taiwanese",33.975903,-118.417949,US,CA,Los Angeles,90094,"['pickup', 'delivery']"
380,qX4i4xyc-8Im4PLpJX-L8g,Alta West Adams,4.0,347,$$,"['pickup', 'delivery']",False,"Soul Food, Venues & Event Spaces","soulfood, venues",34.03278,-118.35994,US,CA,Los Angeles,90016,"['pickup', 'delivery']"
381,Uciy4a2wODubfq24noRRag,Little Kingston Jamaican Restaurant,3.5,375,$$,"['pickup', 'delivery']",False,Caribbean,caribbean,33.9880618,-118.359215752949,US,CA,Los Angeles,90056,"['pickup', 'delivery']"
382,y930hFhya749MWRTdQApIw,EP & LP,3.0,1539,$$,"['pickup', 'delivery']",False,"Asian Fusion, Cocktail Bars","asianfusion, cocktailbars",34.0821012,-118.3766549,US,CA,West Hollywood,90069,"['pickup', 'delivery']"
383,wHS1K65wMUHN1zo9zWxExQ,Cajun Boiling Crab - L.A.,5.0,1,,[],False,"Seafood, Cajun/Creole, Soul Food","seafood, cajun, soulfood",34.010664,-118.334856,US,CA,Los Angeles,90008,
384,gTnENRgQRiVa3LxKO6FaBg,Taste of the Caribbean,4.5,23,,"['pickup', 'delivery']",False,Caribbean,caribbean,33.98727,-118.30001,US,CA,Los Angeles,90044,"['pickup', 'delivery']"
385,5oBl4waF3RT2b218OFTL4A,Harold & Belle's,3.5,957,$$,"['pickup', 'delivery']",False,"Cajun/Creole, Southern, Bars","cajun, southern, bars",34.0254551,-118.327966,US,CA,Los Angeles,90018,"['pickup', 'delivery']"
386,0hddg8pBXwnGog0bmmIm9w,Chef Marilyn's,3.5,176,$$,"['pickup', 'delivery']",False,"Southern, Cajun/Creole, Soul Food","southern, cajun, soulfood",34.0312698,-118.3349851,US,CA,Los Angeles,90016,"['pickup', 'delivery']"
387,TwaSn8tGe1zoHiZvWZripQ,Mike's New York Pizzeria,4.0,55,,"['pickup', 'delivery']",False,Pizza,pizza,33.988059,-118.3661,US,CA,Los Angeles,90056,"['pickup', 'delivery']"
388,kdTFcDSl9vAR-btEm1Q2uw,Bao Dim Sum House,4.0,3010,$$,"['pickup', 'delivery', 'restaurant_reservation']",False,"Dim Sum, Bars, Tapas/Small Plates","dimsum, bars, tapasmallplates",34.07577,-118.36982,US,CA,Los Angeles,90048,"['pickup', 'delivery', 'restaurant_reservation']"
389,nps0CdUjiN91FtDwpTrcdg,SALT Restaurant and Bar,3.5,1194,$$,"['pickup', 'delivery']",False,"American (New), Cocktail Bars, Breakfast & Brunch","newamerican, cocktailbars, breakfast_brunch",33.9801104537557,-118.445956060783,US,CA,Marina del Rey,90292,"['pickup', 'delivery']"
390,qCrSlf_TSVxITOYIBXGdJQ,Cannabis Cafe,3.5,678,,['delivery'],False,"Cannabis Dispensaries, Cafes","cannabisdispensaries, cafes",34.092688,-118.344421,US,CA,West Hollywood,90038,['delivery']
391,qrjj7XeIx2XoFOomNVuT5w,Catch LA,3.5,2794,$$$,"['pickup', 'delivery']",False,"Sushi Bars, Seafood","sushi, seafood",34.0812823176384,-118.383591100574,US,CA,West Hollywood,90069,"['pickup', 'delivery']"
392,aFNJKGZvRxAEZ-MKGP9LmA,JR's Barbeque,4.0,659,$$,['delivery'],False,Barbeque,bbq,34.0306015014648,-118.372421264648,US,CA,Culver City,90232,['delivery']
393,-bHFEUV0DjYy8_rV5zY-2g,Quebobs Restaurant,4.5,48,$$,"['pickup', 'delivery']",False,"Mediterranean, Halal","mediterranean, halal",34.02279,-118.37189,US,CA,Los Angeles,90016,"['pickup', 'delivery']"
394,3dmkjDqnsp__V5kxsq6rOA,Post & Beam,3.5,943,$$,"['pickup', 'delivery']",False,"Pizza, Southern, American (New)","pizza, southern, newamerican",34.009861,-118.3390427,US,CA,Los Angeles,90008,"['pickup', 'delivery']"
395,tWkqjOEcoDuh5hvMdRSa7Q,Swift Cafe,5.0,63,$$,"['pickup', 'delivery']",False,Cafes,cafes,34.00591,-118.33439,US,CA,Los Angeles,90008,"['pickup', 'delivery']"
396,vZA3rfLP24TayQrsGsJsdw,CBC: Cajun Boiling Crab - L.A,2.5,31,,"['pickup', 'delivery']",False,"Cajun/Creole, Seafood","cajun, seafood",34.0107606875,-118.334930042,US,CA,Los Angeles,90008,"['pickup', 'delivery']"
397,PlQjtbZKOw7exAUfrswhNQ,The Kimbap,4.5,597,$,['delivery'],False,Korean,korean,34.06696,-118.30871,US,CA,Los Angeles,90020,['delivery']
398,30jrTz8vh1xSXdtXMvt-mA,My Two Cents,4.5,708,$$,"['pickup', 'delivery']",False,"Southern, Seafood, Soul Food","southern, seafood, soulfood",34.0498186,-118.3596124,US,CA,Los Angeles,90019,"['pickup', 'delivery']"
399,71jANDdx-C9tugAOZIKj7w,Pilot,4.0,174,,['delivery'],False,"Bars, Mediterranean","bars, mediterranean",34.03973,-118.25852,US,CA,Los Angeles,90015,['delivery']
400,Pk1m_Wnhw3wgD-GIuGfTxA,Aliki's Greek Taverna,4.5,1091,$$,['delivery'],False,Greek,greek,33.9524703946447,-118.385242001852,US,CA,Los Angeles,90045,['delivery']
401,3iiCCk6IePr1w4UGg143BA,Cluckin Bun,4.5,226,$$,"['delivery', 'pickup']",False,Chicken Shop,chickenshop,33.9610399,-118.3754816,US,CA,Inglewood,90301,"['delivery', 'pickup']"
402,SHiiQZQus20xnD-jW9oQuw,The Ramen Joint,4.5,1382,$$,['delivery'],False,Ramen,ramen,33.9583942,-118.3941804,US,CA,Los Angeles,90045,['delivery']
403,DEIJBrVPM-BklHI4nFjboQ,Ohana Hawiian Grindz,4.5,2,$,[],False,"Food Trucks, Hawaiian","foodtrucks, hawaiian",33.95123,-118.38516,US,CA,Los Angeles,90009,
404,p0cmY2XRBdsMjFc4tdBPGw,Mr Fries Man - Inglewood,4.5,20,,"['delivery', 'pickup']",False,American (Traditional),tradamerican,33.960995,-118.375893,US,CA,Inglewood,90301,"['delivery', 'pickup']"
405,NgjH7Djo93MdM0sJ7duJDQ,Kebab Bar | Mediterranean Restaurant Los Angeles,4.5,4,,"['delivery', 'pickup']",False,"Mediterranean, Persian/Iranian, Middle Eastern","mediterranean, persian, mideastern",33.957897,-118.395593,US,CA,Los Angeles,90045,"['delivery', 'pickup']"
406,cAnHOEuT0MkiribpjnFVRg,Ayara Thai Cuisine,4.0,2213,$$,"['delivery', 'pickup']",False,Thai,thai,33.95878,-118.39451,US,CA,Los Angeles,90045,"['delivery', 'pickup']"
407,WEy4_RGoivCOIbu-7M4x2Q,Pita Café,4.0,221,$$,"['delivery', 'pickup']",False,Mediterranean,mediterranean,33.95954,-118.38004,US,CA,Los Angeles,90045,"['delivery', 'pickup']"
408,M2mLuHbmDzwR8QMGqdLjrQ,Truxton's American Bistro,4.0,1441,$$,"['delivery', 'pickup']",False,American (New),newamerican,33.959442,-118.393598,US,CA,Los Angeles,90045,"['delivery', 'pickup']"
409,KHpIgK8WfRcNnUbrZfc3JQ,Mariscos El Sabroso,4.5,62,$,[],False,"Food Stands, Food Trucks","foodstands, foodtrucks",33.9528170404488,-118.382548436249,US,CA,Westchester,90045,
410,ff_x5oASbBa3Mmd2Rvr1kg,Melody Bar and Grill,4.0,710,$$,"['delivery', 'pickup']",False,"Bars, American (New)","bars, newamerican",33.95381,-118.39565,US,CA,Los Angeles,90045,"['delivery', 'pickup']"
411,ROOiqA2eu6NL6mrjh9muVg,Mono Poke,4.0,312,$,"['delivery', 'pickup']",False,"Hawaiian, Poke, Salad","hawaiian, poke, salad",33.9569892,-118.3957129,US,CA,Los Angeles,90045,"['delivery', 'pickup']"
412,R-FKCZNy7APGShU2EZm1xw,Miyako Express,4.0,208,$,['delivery'],False,Japanese,japanese,33.95944,-118.37918,US,CA,Los Angeles,90045,['delivery']
413,nPdp-GEnhHF0zI411QEHZA,Halal Kabob House,4.5,22,,"['delivery', 'pickup']",False,"Halal, Pakistani, Indian","halal, pakistani, indpak",33.960264,-118.37584216,US,CA,Inglewood,90301,"['delivery', 'pickup']"
414,zFaOwOIpnv-FhVnZ93TYYg,Jino's Pars - Persian and Italian Restaurant,4.0,552,$$,"['delivery', 'pickup']",False,"Persian/Iranian, Italian","persian, italian",33.959526,-118.384278,US,CA,Los Angeles,90045,"['delivery', 'pickup']"
415,i6JkqE_Z7Dz9lEhscxuZVA,JW Steakhouse,4.0,137,$$$,['delivery'],False,"Steakhouses, Seafood, American (Traditional)","steak, seafood, tradamerican",33.946629,-118.384843,US,CA,Los Angeles,90045,['delivery']
416,ue-dW9901eQYUkOmdBwehQ,Bad Hombre Tacos,4.5,45,,"['delivery', 'pickup']",False,"Food Trucks, Tacos","foodtrucks, tacos",33.9599740987599,-118.39732950819,US,CA,Los Angeles,90045,"['delivery', 'pickup']"
417,Gaiz9ugWGl0oGX5wgZ-Emw,Panera Bread,2.5,428,$$,"['delivery', 'pickup']",False,"Sandwiches, Salad, Soup","sandwiches, salad, soup",33.9585317807181,-118.396644070745,US,CA,Westchester,90045,"['delivery', 'pickup']"
418,vgy7ArZLFAFZEtvARaWIYQ,Golden Phoenix,4.0,16,,"['delivery', 'pickup']",False,"Chinese, Salad, Soup","chinese, salad, soup",33.9602646560541,-118.378177975,US,CA,Los Angeles,90045,"['delivery', 'pickup']"
419,oyQ6pP-3du-CgvzF4XZNfg,Daily Grill,3.5,358,$$,"['delivery', 'pickup']",False,"American (Traditional), Wine Bars, Cocktail Bars","tradamerican, wine_bars, cocktailbars",33.9446436625546,-118.374575871864,US,CA,Los Angeles,90045,"['delivery', 'pickup']"
420,rupB_SZL6dEh3zi8ZnxM2w,Kanpai Japanese Sushi Bar & Grill 2,4.0,692,$$,"['delivery', 'pickup']",False,"Sushi Bars, Ramen","sushi, ramen",33.957713033813,-118.395974141022,US,CA,Los Angeles,90045,"['delivery', 'pickup']"
421,RYA5VQ_8BJS6xilYG-BPkg,In-N-Out Burger,4.0,1558,$,[],False,"Burgers, Fast Food","burgers, hotdogs",33.9537021005473,-118.396771789024,US,CA,Los Angeles,90045,
422,eifVDl7UWpK0TkrtbP9Hqw,The Original Rinaldi's Deli and Cafe,4.5,95,$$,"['delivery', 'pickup']",False,"Delis, Cafes, Sandwiches","delis, cafes, sandwiches",33.9458922,-118.3935689,US,CA,Los Angeles,90045,"['delivery', 'pickup']"
423,Fh-vMycZatCbLbJkaRKhxg,Social Market & Eatery,3.5,33,,['delivery'],False,"Comfort Food, American (Traditional)","comfortfood, tradamerican",33.946419,-118.3844515,US,CA,Los Angeles,90045,['delivery']
424,EcdzecfmG2shR_Ug4d-_Dg,Sushi Kura,4.0,348,$$,"['delivery', 'pickup']",False,"Sushi Bars, Japanese, Soup","sushi, japanese, soup",33.960447,-118.378226,US,CA,Los Angeles,90045,"['delivery', 'pickup']"
425,-5_bR1uMpkTYOA17_6f1Lw,Olive It,4.5,220,$,['delivery'],False,"Delis, Salad, Sandwiches","delis, salad, sandwiches",33.9587096,-118.394182,US,CA,Los Angeles,90045,['delivery']
426,jDHa8BN1fvMvnC05ZsqC_w,Wacky Wok Westchester ,3.5,511,$$,"['delivery', 'pickup']",False,Chinese,chinese,33.955387305122,-118.396962023313,US,CA,Los Angeles,90045,"['delivery', 'pickup']"
427,Wz4LD7ABfwggHnICV30L6Q,The Coffee Company,4.0,1667,$$,['delivery'],False,"Coffee & Tea, Breakfast & Brunch, American (New)","coffee, breakfast_brunch, newamerican",33.957594,-118.394536,US,CA,Los Angeles,90045,['delivery']
428,gJ-ZOu6nlpK1OSeGLGYvww,Paco's Tacos,3.5,773,$$,['delivery'],False,Mexican,mexican,33.959725,-118.394168,US,CA,Los Angeles,90045,['delivery']
429,g4BDomxJCKHb88s8w1T5iQ,Trimana,4.5,86,$,['delivery'],False,"Delis, Breakfast & Brunch","delis, breakfast_brunch",33.9457149,-118.3862592,US,CA,Los Angeles,90045,['delivery']
430,ovznF3epfG_VapojMlfOIQ,Mariella's Tacos,4.0,231,$,['delivery'],False,"Food Trucks, Tacos, Hot Dogs","foodtrucks, tacos, hotdog",33.9435850341921,-118.377395044943,US,CA,Los Angeles,90045,['delivery']
431,VLzWbQcCZ6ZXEdQb2g9EUQ,Three Flames Mongolian Bar-B-Q,3.5,206,$$,['delivery'],False,"Barbeque, Mongolian","bbq, mongolian",33.9597551,-118.3790799,US,CA,Los Angeles,90045,['delivery']
432,nPKATsl9OI6G_A-FWmz8WQ,LaRocco's Pizzeria,4.0,292,$,"['delivery', 'pickup']",False,"Pizza, Italian","pizza, italian",33.9568214416504,-118.395751953125,US,CA,Los Angeles,90045,"['delivery', 'pickup']"
433,_CsAkbq5UTLzACQNKnWUiQ,Los Taquitos,4.0,89,$,"['delivery', 'pickup']",False,Mexican,mexican,33.9611341059208,-118.37592869997,US,CA,Inglewood,90301,"['delivery', 'pickup']"
434,zeDX5kME9OelDk7TmlCdzw,Hangar 18,3.0,44,$$,['delivery'],False,"Sports Bars, American (Traditional)","sportsbars, tradamerican",33.946462,-118.384497,US,CA,Los Angeles,90045,['delivery']
435,7jC18an_yQ4hxmxdzdRlOg,Gateway to Go Food Truck Lot,3.5,27,$$,[],False,Food Stands,foodstands,33.9468517158164,-118.388753040475,US,CA,Los Angeles,90045,
436,lkWiPrSvd6b8DULRnj-tog,Taqueria Guadalupana,4.5,6,,[],False,"Food Trucks, Street Vendors, Tacos","foodtrucks, streetvendors, tacos",33.95461,-118.39621,US,CA,Los Angeles,90045,
437,d7ylcyNfECArg4zgBw8YqQ,Noodle World Jr,3.5,299,$$,"['delivery', 'pickup']",False,"Thai, Chinese, Noodles","thai, chinese, noodles",33.95874,-118.39575,US,CA,Los Angeles,90045,"['delivery', 'pickup']"
438,cv-9CWQA-0jjBhZ55T4g2g,zpizza Taproom,4.0,269,$$,"['delivery', 'pickup']",False,"Pizza, Salad, Sandwiches","pizza, salad, sandwiches",33.946155,-118.387154,US,CA,Los Angeles,90045,"['delivery', 'pickup']"
439,vqXfFRSvAGdsJ4lHPndpYA,Game Sports Bar Restaurant & Lounge,3.5,437,$$,['pickup'],False,"Sports Bars, American (New), Lounges","sportsbars, newamerican, lounges",33.95944,-118.37957,US,CA,Los Angeles,90045,['pickup']
440,VknHnpc5RS2Rcg5SV0BEgw,Yoshinoya,3.0,77,$,[],False,Japanese,japanese,33.95954,-118.38004,US,CA,Westchester,90045,
441,SJXGSqtnb3FtB_ZDglYlpA,Brewsters Beererie,3.5,92,$$,[],False,"American (Traditional), Sports Bars","tradamerican, sportsbars",33.94791,-118.385,US,CA,Los Angeles,90045,
442,IHk_i134DS25QWxkFLRTXQ,Flores Arandas Tacos,5.0,9,$,[],False,"Food Trucks, Tacos","foodtrucks, tacos",33.95479,-118.395633,US,CA,Los Angeles,90045,
443,yjw63KRuSdCzMwyslNT5lA,Aduke Nigerian Cuisine,4.5,87,,"['delivery', 'pickup']",False,African,african,33.960264,-118.37584216,US,CA,Inglewood,90301,"['delivery', 'pickup']"
444,6pE_mCteXQ0VkMP0Zv2V_g,Tumby's Pizza,4.0,482,$,"['delivery', 'pickup']",False,"Pizza, Italian, Chicken Wings","pizza, italian, chicken_wings",33.9600850707484,-118.375004384668,US,CA,Inglewood,90301,"['delivery', 'pickup']"
445,Qu1AVV4wej7R54c_NiWORg,Mariscos Guillen,4.5,6,,[],False,"Mexican, Food Trucks","mexican, foodtrucks",33.9478790731007,-118.378449305892,US,CA,Inglewood,90045,
446,X2TMRORGEX2-JMqE-KnE6A,Chana Thai Cuisine,3.5,202,$,"['delivery', 'pickup']",False,Thai,thai,33.96044,-118.37579,US,CA,Inglewood,90301,"['delivery', 'pickup']"
447,Fp1MXQ47IqqDAb2G-akGwQ,Café Solar,4.0,388,$$,"['delivery', 'pickup']",False,"Coffee & Tea, Breakfast & Brunch, American (New)","coffee, breakfast_brunch, newamerican",33.9595,-118.39456,US,CA,Los Angeles,90045,"['delivery', 'pickup']"
448,b5I7ufw886a80M7M2VgtyA,The Original Brooklyn Water Bagels,3.5,610,$,"['delivery', 'pickup']",False,"Bagels, Breakfast & Brunch, Sandwiches","bagels, breakfast_brunch, sandwiches",33.95782,-118.396029,US,CA,Los Angeles,90045,"['delivery', 'pickup']"
449,s1W3RnH7t03gSTyNR5umHQ,Costero California Bar + Bistro,3.5,97,$$,[],False,"American (New), Bars, Sandwiches","newamerican, bars, sandwiches",33.9466262,-118.390812,US,CA,Los Angeles,90045,
450,AWQELVqEeeCbstdp8PUVYg,The Ppong,4.5,92,,[],False,"Korean, Chinese, Soup","korean, chinese, soup",34.062044,-118.3146891,US,CA,Los Angeles,90010,
451,pjh40JY5YwWeV8aKhkXERg,Myungrang Hot Dog-California Market LA,4.5,862,$,['delivery'],False,Hot Dogs,hotdog,34.06577,-118.30847,US,CA,Los Angeles,90020,['delivery']
452,uzAbw27XQTXTivjgf2bN2w,Han Bat Sul Lung Tang,4.5,2281,$$,['delivery'],False,"Korean, Comfort Food, Soup","korean, comfortfood, soup",34.065414,-118.3095703125,US,CA,Los Angeles,90020,['delivery']
453,h1R2iKYdm2lwukzMJvJqDw,Hangari Kalguksu,4.5,1718,$$,"['pickup', 'delivery']",False,"Korean, Noodles","korean, noodles",34.0628602582049,-118.297570301258,US,CA,Los Angeles,90020,"['pickup', 'delivery']"
454,PlQjtbZKOw7exAUfrswhNQ,The Kimbap,4.5,597,$,['delivery'],False,Korean,korean,34.06696,-118.30871,US,CA,Los Angeles,90020,['delivery']
455,JYGPEUZy4k5ObXGIjcD3DA,Hae Jang Chon Korean BBQ Restaurant,4.0,5023,$$,['delivery'],False,"Korean, Barbeque","korean, bbq",34.0638885,-118.3060754,US,CA,Los Angeles,90020,['delivery']
456,jisjJNoV5jzfAMIYKn7y5A,Chef Kang Sul Box,4.5,164,$$,"['pickup', 'delivery']",False,"Korean, Gastropubs, Chicken Wings","korean, gastropubs, chicken_wings",34.061888,-118.311284,US,CA,Los Angeles,90010,"['pickup', 'delivery']"
457,DrToq9357afdpOyO5w0Y5w,Yup Dduk LA,4.5,2086,$$,"['pickup', 'delivery']",False,Korean,korean,34.064009,-118.3007013,US,CA,Los Angeles,90020,"['pickup', 'delivery']"
458,6Qkw3cCuM4AR-t8_NRPh3A,Kuishimbo,4.0,137,$,['pickup'],False,"Japanese, Seafood","japanese, seafood",34.062045,-118.314467,US,CA,Los Angeles,90010,['pickup']
459,ho3kMMflXm9q9skQui4ioQ,Chef Kang Korean Taco,5.0,16,,[],False,"Korean, Tacos, Food Stands","korean, tacos, foodstands",34.061888,-118.311284,US,CA,Los Angeles,90010,
460,AIhWsp8yNfKZfaX9d9Yajg,Pasta Sisters,4.5,1557,$$,"['pickup', 'delivery']",False,"Delis, Italian","delis, italian",34.0476,-118.317234,US,CA,Los Angeles,90019,"['pickup', 'delivery']"
461,MlmcOkwaNnxl3Zuk6HsPCQ,Slurpin' Ramen Bar - Los Angeles,4.5,4599,$$,"['pickup', 'delivery']",False,"Ramen, Noodles","ramen, noodles",34.0573614429986,-118.306769744705,US,CA,Los Angeles,90005,"['pickup', 'delivery']"
462,D9zxzPYoOnk6SG3ELkEnRg,CROQUÉ,5.0,2,,[],False,"Sandwiches, French, Fast Food","sandwiches, french, hotdogs",34.076286315918,-118.302085876465,US,CA,Los Angeles,90004,
463,1ZEUvoDlg7ixlwwlK2a3mQ,Ha Sun Saeng - Master Ha,4.5,368,$$,"['pickup', 'delivery']",False,"Korean, Live/Raw Food, Seafood","korean, raw_food, seafood",34.0497189,-118.3091849,US,CA,Los Angeles,90006,"['pickup', 'delivery']"
464,IsYKwtEKp0RvEqlOJ1CqPA,Sip & Chick,5.0,27,$$,"['pickup', 'delivery']",False,"Ramen, Sandwiches","ramen, sandwiches",34.062135,-118.31455667,US,CA,Los Angeles,90010,"['pickup', 'delivery']"
465,LLj451UZrvt3SkZVrEZ4ew,MDK  Noodles,4.0,1265,$$,"['pickup', 'delivery']",False,"Korean, Noodles, Soup","korean, noodles, soup",34.0615549821861,-118.304317495701,US,CA,Los Angeles,90010,"['pickup', 'delivery']"
466,0SerWqGwzNWpTA2RBLVdUg,Sun Nong Dan,4.0,1688,$$,"['pickup', 'delivery']",False,"Korean, Soup","korean, soup",34.0630836857803,-118.297481238021,US,CA,Los Angeles,90020,"['pickup', 'delivery']"
467,HTFByVH44biQsc_R8sEOjg,BCD Tofu House,4.0,4368,$$,"['pickup', 'delivery']",False,Korean,korean,34.0620862485445,-118.302658449143,US,CA,Los Angeles,90010,"['pickup', 'delivery']"
468,qAAoilHU25Qr45FOQlA19g,Kang Ho-dong Baekjeong,4.5,4327,$$,"['pickup', 'delivery']",False,"Barbeque, Korean","bbq, korean",34.063765,-118.297262,US,CA,Los Angeles,90020,"['pickup', 'delivery']"
469,IzRINfSLBr6k_dq1e2WNew,Guelaguetza Restaurante,4.0,2320,$$,"['pickup', 'delivery', 'restaurant_reservation']",False,Mexican,mexican,34.05241,-118.30071,US,CA,Los Angeles,90006,"['pickup', 'delivery', 'restaurant_reservation']"
470,2jE8MmJk1R3vfCz0roFwXQ,Seoul Pho,4.5,126,$$,"['pickup', 'delivery']",False,Vietnamese,vietnamese,34.06577,-118.30847,US,CA,Los Angeles,90020,"['pickup', 'delivery']"
471,y4X0KfHJ5XWwxMIRukVr1Q,CHD,4.5,73,$$,"['pickup', 'delivery']",False,Korean,korean,34.06229367,-118.29757617,US,CA,Los Angeles,90010,"['pickup', 'delivery']"
472,34EtzYXSKlbAWY8aLZD2kg,Boolieya,4.5,47,$$,"['pickup', 'delivery']",False,"Korean, Bars, Asian Fusion","korean, bars, asianfusion",34.06204,-118.3133,US,CA,Los Angeles,90010,"['pickup', 'delivery']"
473,-XwCatxfjyujeYbhh6ukrQ,Larchmont Village Wine Spirits & Cheese,4.5,937,$,['delivery'],False,"Beer, Wine & Spirits, Sandwiches, Cheese Shops","beer_and_wine, sandwiches, cheese",34.075313,-118.323881,US,CA,Los Angeles,90004,['delivery']
474,BEItepse0gBSfkJ4sb_k-g,Hae Ha Heng Thai Bistro,4.5,1249,$$,"['pickup', 'delivery']",False,Thai,thai,34.06843993759294,-118.30946334676554,US,CA,Los Angeles,90020,"['pickup', 'delivery']"
475,YKN48-eYsNe6gaP_cWXNuQ,Soseji,5.0,3,,[],False,"Food Stands, Barbeque, Korean","foodstands, bbq, korean",34.057898,-118.303352,US,CA,Los Angeles,90005,
476,Li_9ubtNccyLArdHWTkbfQ,Yoshinoya,2.5,9,,['delivery'],False,Japanese,japanese,34.062128,-118.313381,US,CA,Los Angeles,90010,['delivery']
477,aVOeM9zGvIcyKuJWEMxc5w,Dave's Hot Chicken,4.0,329,$$,"['pickup', 'delivery']",False,Chicken Shop,chickenshop,34.06161,-118.29964,US,CA,Los Angeles,90010,"['pickup', 'delivery']"
478,BEPXvRTMiYRrTPLqodox7g,CALI PHO NIA,4.0,100,$,"['pickup', 'delivery']",False,"Vietnamese, Bubble Tea","vietnamese, bubbletea",34.066502,-118.309496,US,CA,Los Angeles,90020,"['pickup', 'delivery']"
479,5K-jAlFfFX1nnaeT8zsufw,Pollo a La Brasa Western,4.0,849,$$,[],False,"Latin American, Peruvian, Chicken Shop","latin, peruvian, chickenshop",34.057823,-118.308776,US,CA,Los Angeles,90005,
480,edhKYvJvIFgfREnUFewxiw,SYTK Sullungtang,0.0,0,,[],False,Korean,korean,34.053109,-118.292327,US,CA,Los Angeles,90006,
481,Dnn4_XmzQxOFNpnqh7KyWg,Seongbukdong,4.0,1123,$$,"['pickup', 'delivery']",False,Korean,korean,34.0637349,-118.2943728,US,CA,Los Angeles,90020,"['pickup', 'delivery']"
482,rr-hXB0ZqXLzUP97yftp0g,Osteria Mamma,4.0,1651,$$,"['pickup', 'delivery', 'restaurant_reservation']",False,"Italian, Wine Bars","italian, wine_bars",34.0833586783984,-118.324724939274,US,CA,Los Angeles,90038,"['pickup', 'delivery', 'restaurant_reservation']"
483,UaxSpacBpGQrXv9Cytai2A,Woo Hyang Woo,5.0,96,,[],False,"Korean, Barbeque, Bars","korean, bbq, bars",34.063763,-118.296482,US,CA,Los Angeles,90020,
484,lx0ohxTwphu8CzOA4xz8-Q,FishPop,5.0,55,,[],False,"Fish & Chips, Pop-Up Restaurants","fishnchips, popuprestaurants",34.061383,-118.299717,US,CA,Los Angeles,90010,
485,clJmJd_tbaK34j1CN-9MYQ,Koreatown Pizza Company,4.0,353,$$,"['pickup', 'delivery']",False,"Pizza, Bars, Burgers","pizza, bars, burgers",34.0613398,-118.3113545,US,CA,Los Angeles,90010,"['pickup', 'delivery']"
486,42457QM4W5bfhLhkNFgFdA,Arado Japanese Restaurant,3.5,210,$$,"['pickup', 'delivery']",False,"Japanese, Sushi Bars, Korean","japanese, sushi, korean",34.0619,-118.31433,US,CA,Los Angeles,90010,"['pickup', 'delivery']"
487,TWHGJkTAbF22hvXeReQp9w,Kobawoo House,4.5,1234,$$,"['pickup', 'delivery']",False,"Korean, Soup, Seafood","korean, soup, seafood",34.060116,-118.291004,US,CA,Los Angeles,90005,"['pickup', 'delivery']"
488,frRPjJ03Ie5h9EPhFhjNIw,Bulgogi Hut,4.5,2428,$$,"['pickup', 'delivery']",False,"Korean, Barbeque, Asian Fusion","korean, bbq, asianfusion",34.061564,-118.303271,US,CA,Los Angeles,90010,"['pickup', 'delivery']"
489,YVbO3FENQQzcDwxtlrR1Iw,Mister Bossam,4.0,658,$$,"['pickup', 'delivery']",False,Korean,korean,34.067756012401,-118.308878212251,US,CA,Los Angeles,90020,"['pickup', 'delivery']"
490,YCEgBqClpWXQ3leoAhWjoA,Sushi Hon,4.5,203,$$,"['pickup', 'delivery', 'restaurant_reservation']",False,Sushi Bars,sushi,34.0538778,-118.320434,US,CA,Los Angeles,90019,"['pickup', 'delivery', 'restaurant_reservation']"
491,H9ZlIqEp930ZRniH6VRp8w,Papa Cristo's,4.5,1962,$$,"['pickup', 'delivery']",False,"Greek, Mediterranean, Bakeries","greek, mediterranean, bakeries",34.0474029033579,-118.299641746033,US,CA,Los Angeles,90006,"['pickup', 'delivery']"
492,Wjckf5QPdVQw1ZG82zEarA,M Grill,4.5,2135,$$$,"['pickup', 'delivery']",False,"Brazilian, Steakhouses, Wine Bars","brazilian, steak, wine_bars",34.06142,-118.310424,US,CA,Los Angeles,90010,"['pickup', 'delivery']"
493,Fb3WueRF1ekhs72psinq5w,Mario's Peruvian & Seafood,4.0,2369,$$,['delivery'],False,"Seafood, Peruvian","seafood, peruvian",34.0833651,-118.3262166,US,CA,Los Angeles,90038,['delivery']
494,ERqWIIhbV4d_x_1pvoSsgA,DaeBuDo,4.5,205,$$,[],False,"Korean, Seafood, Barbeque","korean, seafood, bbq",34.0614471,-118.311821,US,CA,Los Angeles,90010,
495,U7-UBPHK44Y_9wyfOmuHuA,The Boiling Crab,4.0,2350,$$,['delivery'],False,"Seafood, Cajun/Creole","seafood, cajun",34.0624249247685,-118.297670715344,US,CA,Los Angeles,90010,['delivery']
496,nxOmiITLYE3AdEqrSZIRDg,Young King,4.0,575,$$,['delivery'],False,"Chinese, Korean, Seafood","chinese, korean, seafood",34.05239,-118.30342,US,CA,Los Angeles,90006,['delivery']
497,8IIxpyJENF6e1LDLoDVjrA,California Market,3.5,161,$$,[],False,"Grocery, Food Court, Seafood Markets","grocery, food_court, seafoodmarkets",34.0657662051735,-118.308519087732,US,CA,Los Angeles,90020,
498,X9KlLFQGSgC0A-q-p1Hu6Q,Egg Tuck,4.5,413,$,"['pickup', 'delivery']",False,"Breakfast & Brunch, Coffee & Tea, Sandwiches","breakfast_brunch, coffee, sandwiches",34.0613285,-118.2999717,US,CA,Los Angeles,90010,"['pickup', 'delivery']"
499,vs8USEc1A480H8MnmFKs5A,Chadolpoong,4.5,323,$$,['delivery'],False,"Korean, Barbeque, Soup","korean, bbq, soup",34.06309,-118.29754,US,CA,Los Angeles,90020,['delivery']
500,SlAhlIL5KAXb4136SHFkOw,Bangin Buns,4.0,5,,"['pickup', 'delivery']",False,Fast Food,hotdogs,33.975267,-118.248158,US,CA,Los Angeles,90001,"['pickup', 'delivery']"
501,UPS373VijAWw6TeYPXmItg,Super Tortas DF,4.5,157,$,['delivery'],False,"Food Trucks, Cuban, Hawaiian","foodtrucks, cuban, hawaiian",34.0090951,-118.2566828,US,CA,Los Angeles,90011,['delivery']
502,spKUIFIABLaU63Ex4PEYvQ,Rays BBQ,4.5,801,$$,['delivery'],False,"Barbeque, Smokehouse, Salad","bbq, smokehouse, salad",33.986598,-118.229803,US,CA,Huntington Park,90255,['delivery']
503,yQVPKXmDIUb6yH3MM8Q3nQ,Strada Eateria & Bar,5.0,354,$$,"['restaurant_reservation', 'pickup', 'delivery']",False,"Tapas/Small Plates, Bars, American (New)","tapasmallplates, bars, newamerican",34.046649,-118.2633746,US,CA,Los Angeles,90015,"['restaurant_reservation', 'pickup', 'delivery']"
504,0z23Jk7U_MpvtqKINPL2fA,Dirt Dog,4.5,2263,$,"['pickup', 'delivery']",False,"Hot Dogs, Beer Bar","hotdog, beerbar",34.0282923762355,-118.275208244705,US,CA,Los Angeles,90007,"['pickup', 'delivery']"
505,K-Fbh2WCHlqR56H9TnfpNA,Perch,4.0,8059,$$$,"['pickup', 'delivery']",False,"Lounges, French, Breakfast & Brunch","lounges, french, breakfast_brunch",34.04897,-118.2514,US,CA,Los Angeles,90013,"['pickup', 'delivery']"
506,UUlGlPfy0FsReQ2LWWBSWw,Tire Shop Taqueria,4.5,509,$,['delivery'],False,"Mexican, Food Stands","mexican, foodstands",34.00943435035074,-118.26549285178298,US,CA,Los Angeles,90011,['delivery']
507,6w7A4JOwwsUka_DhZFFIDA,Monty’s Chicken & Waffles,4.5,81,,"['pickup', 'delivery']",False,"Waffles, Sandwiches, Chicken Shop","waffles, sandwiches, chickenshop",34.0148676008897,-118.278790867221,US,CA,Los Angeles,90037,"['pickup', 'delivery']"
508,QWtzUp4zLqzjA_jxLbvDvA,Granny's Kitchen,4.0,358,$$,"['pickup', 'delivery']",False,"Soul Food, Southern","soulfood, southern",33.9930975470943,-118.256304330019,US,CA,Los Angeles,90011,"['pickup', 'delivery']"
509,LruRPzJ1nOS3_04LV1HAUA,Mr Fries Man,3.5,11,,[],False,Barbeque,bbq,34.014396,-118.282481,US,CA,Los Angeles,90037,
510,_n0fEUZdbkLOimHz_IXkiQ,JOEY DTLA,4.5,1008,,[],False,American (New),newamerican,34.04836,-118.25876,US,CA,Los Angeles,90017,
511,i6opHMcHFaMU905pRhRcYg,Ono Hawaiian BBQ,3.0,171,$,"['pickup', 'delivery']",False,"Barbeque, Hawaiian","bbq, hawaiian",34.0245637,-118.2780347,US,CA,Los Angeles,90007,"['pickup', 'delivery']"
512,fEY0zHaDMfIW3-N__joDKQ,Bestia,4.5,6221,$$$,['delivery'],False,"Italian, Cocktail Bars, Pizza","italian, cocktailbars, pizza",34.03402,-118.22919,US,CA,Los Angeles,90021,['delivery']
513,gnJxuqr3Y2641FZVPmKk1g,Delicious at The Dunbar,4.0,75,$$,"['pickup', 'delivery']",False,"Soul Food, Southern, Salad","soulfood, southern, salad",34.00668,-118.25665,US,CA,Los Angeles,90011,"['pickup', 'delivery']"
514,KQBGm5G8IDkE8LeNY45mbA,Wurstküche,4.0,8444,$$,"['pickup', 'delivery']",False,"Hot Dogs, German, Gastropubs","hotdog, german, gastropubs",34.0456047058105,-118.236061096191,US,CA,Los Angeles,90013,"['pickup', 'delivery']"
515,RAzUPIaCuqufZoPV9gwzUQ,Honeybird,4.0,150,$$,['delivery'],False,"Southern, Chicken Shop, Desserts","southern, chickenshop, desserts",34.024758,-118.284446,US,CA,Los Angeles,90007,['delivery']
516,u6iiP3Ck2TdhHHtN7keJCA,Chicken and Waffle Factory,4.0,17,,[],False,"Food Trucks, Waffles, Sandwiches","foodtrucks, waffles, sandwiches",34.00455,-118.26009,US,CA,Los Angeles,90011,
517,CcqraT0cuGKYEcZ1ri_kxg,BROKEN MOUTH | Lee's Homestyle,5.0,914,$$,"['pickup', 'delivery']",False,"Asian Fusion, Hawaiian, Korean","asianfusion, hawaiian, korean",34.0404035,-118.2535117,US,CA,Los Angeles,90015,"['pickup', 'delivery']"
518,BI8e2lBcSJ4NF8aPwmAduw,SamSik E,4.5,11,,[],False,Korean,korean,34.0225099,-118.26034,US,CA,Los Angeles,90011,
519,_k7GvWRH72vd4N8b70uT9g,Mariscos La Corita,4.5,118,$$,['delivery'],False,"Mexican, Seafood","mexican, seafood",34.00225,-118.26484,US,CA,Los Angeles,90011,['delivery']
520,yMJpttJxzObbbRh0ekawmQ,Birrieria Los Gonzalez,4.0,212,$,[],False,Mexican,mexican,34.02362,-118.26508,US,CA,Los Angeles,90011,
521,JzRPockCXRZbQLjy93AXsg,Los Amigos Restaurant Salvadoreno,4.5,7,$,[],False,Salvadoran,salvadoran,34.0129,-118.25617,US,CA,Los Angeles,90011,
522,BonZ748EKm8pwtVQalFpYQ,Jacks N Joe,4.0,2100,$$,['delivery'],False,"Breakfast & Brunch, American (New)","breakfast_brunch, newamerican",34.02876,-118.27517,US,CA,Los Angeles,90007,['delivery']
523,gTnENRgQRiVa3LxKO6FaBg,Taste of the Caribbean,4.5,23,,"['pickup', 'delivery']",False,Caribbean,caribbean,33.98727,-118.30001,US,CA,Los Angeles,90044,"['pickup', 'delivery']"
524,1lxtw52CJ9ip6VqQCzt2Fw,The Burrow,5.0,280,$$,"['restaurant_reservation', 'delivery', 'pickup']",False,"Sandwiches, Cocktail Bars, Gastropubs","sandwiches, cocktailbars, gastropubs",34.04701,-118.26082,US,CA,Los Angeles,90017,"['restaurant_reservation', 'delivery', 'pickup']"
525,ImWjgRhcohdWYTPUt4iaZw,Bo Daddy’s BBQ,4.5,207,$$,"['pickup', 'delivery']",False,Barbeque,bbq,34.0357902466995,-118.263903692454,US,CA,Los Angeles,90015,"['pickup', 'delivery']"
526,PXx8H3WQgpoz7REj-DxP1Q,Boiling Chick,4.0,11,,"['pickup', 'delivery']",False,"Cajun/Creole, Chicken Wings, Seafood","cajun, chicken_wings, seafood",34.024869,-118.250881,US,CA,Los Angeles,90021,"['pickup', 'delivery']"
527,mQMCi60kT3UeVuDiOckG_w,Tracey's Belizean Restaurant,4.5,130,$$,[],False,Caribbean,caribbean,34.0169944,-118.308632,US,CA,Los Angeles,90062,
528,6rCY1MjoIvTiv2cD5M96Yw,The Green Olive,4.0,89,$$,"['pickup', 'delivery']",False,Mediterranean,mediterranean,34.0095276,-118.2195839,US,CA,Los Angeles,90058,"['pickup', 'delivery']"
529,37gMBHZA9OVE_tckoSRC4Q,Lindo Oaxaca,4.5,73,$$,['delivery'],False,Mexican,mexican,34.0296223014593,-118.261869773269,US,CA,Los Angeles,90015,['delivery']
530,078jd5_RRYZx7rsaSOyA_g,Served 2 Enjoy,5.0,36,,['delivery'],False,Mexican,mexican,34.0008009,-118.265021,US,CA,Los Angeles,90011,['delivery']
531,O0xszdHsAf5k4wqyLiz0xA,Pad Thai Diva,4.5,9,,['delivery'],False,Thai,thai,34.0148676008897,-118.278790867221,US,CA,Los Angeles,90037,['delivery']
532,DcY18Ky6gAy_aikVOwTmGQ,Mee Dee Thai Kitchen,5.0,5,,"['pickup', 'delivery']",False,"Thai, Noodles","thai, noodles",34.014673,-118.278658,US,CA,Los Angeles,90037,"['pickup', 'delivery']"
533,c7xLlX7RjxD0WUcl2sm4Lw,Faith & Flower,4.0,2529,$$$,"['pickup', 'delivery']",False,"American (New), Cocktail Bars","newamerican, cocktailbars",34.046195,-118.261698,US,CA,Los Angeles,90015,"['pickup', 'delivery']"
534,TQjFx3yzyUYBdWb-MpIfvQ,Fisherman's Outlet,4.0,1160,$$,['delivery'],False,"Seafood Markets, Seafood","seafoodmarkets, seafood",34.04083,-118.24018,US,CA,Los Angeles,90013,['delivery']
535,fNkU4SmWjCNfOPBRrjPgWw,Mano Po,4.5,11,,[],False,Filipino,filipino,34.033741,-118.241462,US,CA,Los Angeles,90021,
536,VX3n_CD4Jl0YL8bNyR1Nng,C J Boyd's Fried Chicken,4.5,22,$$,['delivery'],False,Sandwiches,sandwiches,34.013057,-118.285383,US,CA,Los Angeles,90037,['delivery']
537,8jli1kBhKRw3SluKvwyr8g,The Original Snack Shack,4.5,45,$,['delivery'],False,Burgers,burgers,33.991413,-118.256095,US,CA,Los Angeles,90011,['delivery']
