ids,names,rating,review_count,price,transactions,is_closed,type_food,type_food_alias,latitude,longitude,country,state,city,zip_code
vmZ-bgnM5B76NUpegAjy1g,Hotbird,4.5,131,,,False,"Sandwiches, Chicken Shop, Burgers","sandwiches, chickenshop, burgers",37.7768004184036,-122.416263845447,US,CA,San Francisco,94103
pgjbSwK_8DH2o_zQsr3dRQ,AshYan's Lu Ruo Fan,5.0,4,,,False,"Taiwanese, Food Delivery Services","taiwanese, fooddeliveryservices",37.77713,-122.41964,US,CA,San Francisco,
KA-P3d2NcbJy5SQN-vCzPA,Aria Korean Street Food,4.0,891,$$,"['pickup', 'delivery']",False,"Korean, Tapas/Small Plates, Chicken Shop","korean, tapasmallplates, chickenshop",37.78655,-122.41795,US,CA,San Francisco,94109
kFgjHGp-cTUK5uPaSJOORA,Souvla,4.0,1418,$$,['delivery'],False,"Greek, Mediterranean","greek, mediterranean",37.77643,-122.425,US,CA,San Francisco,94102
sk2OH92GwQjFKbguoFWHSw,Uncle Tito,4.0,1,,,False,Filipino,filipino,37.776902,-122.415244,US,CA,San Francisco,94103
GmHNkpAaypi9jclaLI7sDQ,Fermentation Lab,4.5,292,$$,"['pickup', 'delivery']",False,Gastropubs,gastropubs,37.77852,-122.41561,US,CA,San Francisco,94102
kvrQecqdGvnuVICMstZJmA,Dumpling Home,4.5,96,,"['pickup', 'delivery']",False,"Dim Sum, Noodles, Asian Fusion","dimsum, noodles, asianfusion",37.77571,-122.42257,US,CA,San Francisco,94102
lJAGnYzku5zSaLnQ_T6_GQ,Brenda's French Soul Food,4.0,11058,$$,['delivery'],False,"Breakfast & Brunch, Southern, Cajun/Creole","breakfast_brunch, southern, cajun",37.7829016035273,-122.419043442957,US,CA,San Francisco,94102
AMhxom9yhQjTkFRMTKk_IA,WingSlut,4.5,11,,,False,"Chicken Wings, Fast Food, Asian Fusion","chicken_wings, hotdogs, asianfusion",37.776775,-122.416414,US,CA,San Francisco,94103
__V4jzP3SNrg3_n0QoDmcQ,Beyond Burma,4.0,98,$$,"['pickup', 'delivery', 'restaurant_reservation']",False,"Burmese, Indonesian, Noodles","burmese, indonesian, noodles",37.78784,-122.413565,US,CA,San Francisco,94109
lbZj8kCKlfZm3BmvPxzXvA,ChiliCali,5.0,18,,,False,"Pop-Up Restaurants, Caterers, Indonesian","popuprestaurants, catering, indonesian",37.7770186,-122.416524,US,CA,San Francisco,94103
XVPiXV_TPivnr9szB5kc-A,Birdsong,4.5,274,$$$$,,False,American (New),newamerican,37.7793175,-122.4105235,US,CA,San Francisco,94103
d11DpeZN_2CBkaKGkEsKsw,HoM Korean Kitchen,4.0,62,,"['pickup', 'delivery']",False,Korean,korean,37.78095,-122.41453,US,CA,San Francisco,94102
Edjd2Z4Tr1XYy6yq6jMM2w,Papito Hayes,4.0,748,$$,['delivery'],False,Mexican,mexican,37.776635,-122.423396,US,CA,San Francisco,94102
wCf2GGyEOkaSFE0xCYpgOA,Hai Ky Noodles,4.5,980,$$,['delivery'],False,"Chinese, Vietnamese, Noodles","chinese, vietnamese, noodles",37.7840538024902,-122.417953491211,US,CA,San Francisco,94109
pxhNGH0mL_WHMAU4m3tB8A,Arepas En Bici,4.5,35,,,False,"Venezuelan, Personal Chefs, Caterers","venezuelan, personalchefs, catering",37.787152,-122.416361,US,CA,San Francisco,94109
H76UbTvcepqyQ7ZufDkJow,Akna,5.0,21,,,False,"Mexican, Pop-Up Restaurants","mexican, popuprestaurants",37.777726,-122.422991,US,CA,San Francisco,94102
dY0Mc_PHH6nLENvWmVtwxQ,Daeho Kalbijjim & Beef Soup,4.5,891,$$,"['pickup', 'delivery']",False,"Korean, Soup, Noodles","korean, soup, noodles",37.78601,-122.42858,US,CA,San Francisco,94115
iyo3pjuRb7mTpaDwXnAzuQ,Square Pie Guys,4.5,351,$$,"['pickup', 'delivery']",False,Pizza,pizza,37.779479,-122.4103136,US,CA,San Francisco,94103
G3nORz3a6ZnHkOwc7xppdw,Lucky Pig,4.0,188,$$,"['pickup', 'delivery']",False,Korean,korean,37.78509974066,-122.417556957263,US,CA,San Francisco,94109
hqQoVK0vadOX7_4gN1sh3g,Saigon Sandwich,4.5,3364,$,['delivery'],False,"Vietnamese, Sandwiches","vietnamese, sandwiches",37.7831519576568,-122.417318022037,US,CA,San Francisco,94102
kqk5BoCJU59MC9fH0IB4wQ,Kin Khao,4.0,2138,$$,['delivery'],False,Thai,thai,37.7852278803726,-122.409348137336,US,CA,San Francisco,94102
vLNzJX1ctfP4NNESCFOeGw,Son & Garden,4.5,91,,['delivery'],False,American (New),newamerican,37.783387,-122.419016,US,CA,San Francisco,94109
lQv-kAI-ZOMPSJj909I1JQ,Sunset Slurps,4.5,29,,,False,"Vietnamese, Noodles, Soup","vietnamese, noodles, soup",37.773658,-122.416093,US,CA,San Francisco,94103
6KASBgDLNL7tYGj3Z-I1JQ,Mela Tandoori Kitchen,4.0,592,$$,"['pickup', 'delivery', 'restaurant_reservation']",False,"Indian, Pakistani, Halal","indpak, pakistani, halal",37.7811951935291,-122.419438585639,US,CA,San Francisco,94102
HzUyYVeHHbBsB5s2CsPHTg,Matko,4.5,19,,"['pickup', 'delivery']",False,"Korean, Fast Food","korean, hotdogs",37.77702,-122.41652,US,CA,San Francisco,94103
feufnVt4k_t2eJakDU1bAw,Pläj Scandinavian Restaurant & Bar,4.0,674,$$$,,False,"Scandinavian, Bars","scandinavian, bars",37.7787285,-122.4222183,US,CA,San Francisco,94102
2TEUeYh5f4YOW_s1TZ_daQ,Poké Bar,4.0,216,$$,,False,"Asian Fusion, Hawaiian, Poke","asianfusion, hawaiian, poke",37.776435349214,-122.417017556727,US,CA,San Francisco,94103
NIxLwW9mdYegtqhxmXjoaQ,Sunset Squares Pizza,3.5,12,,,False,Pizza,pizza,37.776902,-122.415244,US,CA,San Francisco,94103
KkAVX3Wb7E3lP5F_f_8pXg,Liholiho Yacht Club,4.5,2442,$$$,['delivery'],False,"Bars, American (New), Seafood","bars, newamerican, seafood",37.78818,-122.41458,US,CA,San Francisco,94109
Xdx2_n3nk9Td_aSe7E5ARQ,Rich Table,4.0,1243,$$$,['delivery'],False,"American (New), Cocktail Bars, Wine Bars","newamerican, cocktailbars, wine_bars",37.77485,-122.42284,US,CA,San Francisco,94102
yD9-WrXijc_grVmi_zkCfQ,Hinata,4.5,560,$$$$,['restaurant_reservation'],False,"Sushi Bars, Japanese","sushi, japanese",37.78324,-122.42048,US,CA,San Francisco,94109
L5BYUnIYHKZOlQz8VxmCNQ,Mac Attack,4.5,13,,"['pickup', 'delivery']",False,American (Traditional),tradamerican,37.774818,-122.410742,US,CA,San Francisco,94103
UdRV_X0aah6c2_LLbB8dGg,Yama-chan,4.0,98,$,['delivery'],False,Japanese,japanese,37.785275,-122.429119,US,CA,San Francisco,94115
fFhikWtYzlrgTmekKsf5yg,Manila Bowl,4.0,120,$$,"['pickup', 'delivery']",False,Filipino,filipino,37.77674,-122.41636,US,CA,San Francisco,94103
kPRMsrxQhRC4NMX8Mord_A,Miss SaiGon,4.0,1143,$$,"['pickup', 'delivery', 'restaurant_reservation']",False,Vietnamese,vietnamese,37.7807121276855,-122.408767700195,US,CA,San Francisco,94103
eLIwYQUopMYNQTiWVILuYA,Califorrito,5.0,4,,"['pickup', 'delivery']",False,Mexican,mexican,37.776406,-122.421519,US,CA,San Francisco,94102
nJziHiIt86OGqKQQFHd9jg,Jin Mi Korean Cuisine,4.0,465,$$,"['pickup', 'delivery']",False,"Korean, Soup, Noodles","korean, soup, noodles",37.78162,-122.41682,US,CA,San Francisco,94102
XhJ6ZYagcWNHpJ1H1KvNlQ,a Mano,4.0,965,$$,['delivery'],False,"Italian, Cocktail Bars, Pizza","italian, cocktailbars, pizza",37.776963880538,-122.423868469312,US,CA,San Francisco,94102
2H4HtGBwT8KRfUuWmE3uAg,Bota Tapas & Paella Bar,4.0,287,$$$,"['pickup', 'delivery', 'restaurant_reservation']",False,"Spanish, Seafood, Tapas/Small Plates","spanish, seafood, tapasmallplates",37.786985807903,-122.411396958251,US,CA,San Francisco,94102
GjIO1jUDyaRwV0nS7WfQ7Q,Bellota,4.0,644,$$$,['delivery'],False,"Spanish, Seafood, Tapas Bars","spanish, seafood, tapas",37.772,-122.40526,US,CA,San Francisco,94103
t2sNw0Uzhs7iu7KO4bt8ug,Tortellino,4.5,32,$$,"['pickup', 'delivery']",False,"Italian, Pasta Shops, Cooking Classes","italian, pastashops, cookingclasses",37.776785,-122.4166,US,CA,San Francisco,94103
lqTCGG1LgzO1odQZbHHITw,Hetchy's Hots,4.5,62,,"['pickup', 'delivery']",False,"Chicken Shop, Sandwiches","chickenshop, sandwiches",37.779459,-122.410326,US,CA,San Francisco,94103
c9VZtF34xQBdazi8k-YIMA,The Italian Homemade Company,4.0,201,$$,"['pickup', 'delivery']",False,Italian,italian,37.774414,-122.420937,US,CA,San Francisco,94102
kiRsScNQs_UdDV6jPyeCWg,Petit Crenn,4.0,436,$$$$,,False,French,french,37.7762604,-122.4264908,US,CA,San Francisco,94102
O2y-CyIsJz8f_6f-MJuKIA,Chambers,4.0,979,$$,"['pickup', 'delivery']",False,"American (New), Bars","newamerican, bars",37.7831646,-122.4179174,US,CA,San Francisco,94109
oqsu3pKpgRMGHj9QItsx0A,Zuni Café,4.0,2760,$$$,['delivery'],False,"Italian, French","italian, french",37.7734826,-122.4216396,US,CA,San Francisco,94102
2hSZgn-Ns4MPQ-UZvUOvJQ,Falafel Boy,4.5,13,,"['pickup', 'delivery']",False,Falafel,falafel,37.775344,-122.426229,US,CA,San Francisco,94102
SG2-29u7Uw1VR9e1xCAT5w,Maison Danel,4.0,119,$$$,,False,"Tea Rooms, French, Bakeries","tea, french, bakeries",37.786602,-122.41964,US,CA,San Francisco,94109
cZ1D-Cb2uyDJXik2nFiN0w,Tú Lan,4.0,815,$,"['pickup', 'delivery']",False,"Vietnamese, Seafood, Noodles","vietnamese, seafood, noodles",37.7818811498491,-122.410135446503,US,CA,San Francisco,94103
7dHj1XDVA_7AYXTfp5i-BQ,MOMO noodle,4.0,75,$$,"['delivery', 'pickup']",False,"Noodles, Food Trucks, Szechuan","noodles, foodtrucks, szechuan",37.791053771972656,-122.40193176269531,US,CA,San Francisco,94104
kn782Mw92uchlBI2CyosOQ,Tokyo Hot Chicken San Francisco,4.0,24,,"['delivery', 'pickup']",False,Chicken Shop,chickenshop,37.792886,-122.397979,US,CA,San Francisco,94111
T7yx68dDBG33VJXXks5Fhw,YUBU By The Shota,4.5,53,,"['delivery', 'pickup']",False,"Japanese, Sushi Bars","japanese, sushi",37.79143,-122.401056,US,CA,San Francisco,94104
WOVHQYzSAdyXYOiYDTmujQ,The Bird,4.0,1923,$,['delivery'],False,"Chicken Shop, Sandwiches","chickenshop, sandwiches",37.78724,-122.39995,US,CA,San Francisco,94105
0FpTfyn_QiG7e6cjPjxKqQ,HI City,4.0,50,$$,"['delivery', 'pickup']",False,"Hawaiian, Poke, Filipino","hawaiian, poke, filipino",37.79139,-122.4013,US,CA,San Francisco,94104
ykvr3ib1gHQHI4tznSn8iA,Wayfare Tavern,4.0,3944,$$$,"['delivery', 'pickup']",False,American (Traditional),tradamerican,37.794169,-122.402359,US,CA,San Francisco,94111
BNiAdGR9pvgJvX5R1o_kkQ,Curry Up Now Food Truck,4.0,930,$,['delivery'],False,"Food Trucks, Indian","foodtrucks, indpak",37.79093,-122.40164,US,CA,San Francisco,94104
IRD_9JUjR-06zztisuTdAA,Akiko's Restaurant,4.0,1906,$$$,['delivery'],False,"Sushi Bars, Japanese","sushi, japanese",37.790582,-122.404653,US,CA,San Francisco,94108
5D--FJXQHdC3kZWYm2GREg,Barcha,4.0,500,$$,"['delivery', 'pickup']",False,"Mediterranean, Tapas/Small Plates","mediterranean, tapasmallplates",37.7909966558218,-122.397482693195,US,CA,San Francisco,94105
_BDoTBI2YlyUaWFOXBEF8Q,Sababa,4.5,340,$$,"['delivery', 'pickup']",False,"Mediterranean, Middle Eastern, Greek","mediterranean, mideastern, greek",37.7911832391356,-122.404289804399,US,CA,San Francisco,94108
_oZ8X3onXs6TRgHBewJdYg,Sababa,4.5,17,,,False,"Middle Eastern, Falafel","mideastern, falafel",37.78930878452172,-122.399772869011,US,CA,San Francisco,94105
agUov63fwIufCj8t6pCivg,Pushkin,4.5,201,$,"['delivery', 'pickup']",False,"Russian, Ukrainian, Soup","russian, ukrainian, soup",37.791338,-122.403632,US,CA,San Francisco,94104
7qK2Gwu0afQMtYFSJvvCqQ,Muracci's Japanese Curry & Grill,4.0,1735,$$,['pickup'],False,Japanese Curry,japacurry,37.791036,-122.404233,US,CA,San Francisco,94108
kBEo83SItZwTVZFYBUnJbA,iKU Sushi,4.0,94,$,"['delivery', 'pickup']",False,Sushi Bars,sushi,37.79026,-122.40205,US,CA,San Francisco,94104
MXy-YMQCWpBJf92HFRhGhw,Per Diem,4.0,787,$$,['delivery'],False,"American (New), Cocktail Bars","newamerican, cocktailbars",37.790041,-122.401275,US,CA,San Francisco,94104
Tf14DLc_VlebmUtptENxhw,Shlap Muan by Braised + Bread,4.5,128,$$,"['delivery', 'pickup']",False,"Cambodian, Asian Fusion, Chicken Wings","cambodian, asianfusion, chicken_wings",37.7891276,-122.4029268,US,CA,San Francisco,94104
Wd5ho0_FKk9n7uV8pSCYIg,Barbacco,4.0,1622,$$,"['pickup', 'delivery']",False,"Italian, Bars","italian, bars",37.7935921194034,-122.399338591436,US,CA,San Francisco,94111
ZNj4xwodItEfFofNYxMEhw,The Shota,5.0,165,$$$$,['delivery'],False,"Japanese, Sushi Bars","japanese, sushi",37.79142,-122.40103,US,CA,San Francisco,94104
UqTdHGPBx730m5D51EOI6Q,Rooster & Rice,4.0,345,$$,"['delivery', 'pickup']",False,Thai,thai,37.78923,-122.40404,US,CA,San Francisco,94108
1pq5mmp71nXWBK_jG9VxHg,Golden Star Vietnamese Restaurant,4.0,1233,$,['delivery'],False,"Vietnamese, Noodles, Soup","vietnamese, noodles, soup",37.7945505827665,-122.405742555857,US,CA,San Francisco,94108
XwN8iZohq2qkfM0rPqzDOQ,Uno Dos Tacos,4.0,792,$,"['delivery', 'pickup']",False,"Mexican, Bars, Salad","mexican, bars, salad",37.7891126754314,-122.400815612269,US,CA,San Francisco,94105
mfD5wlWS6tY92FJHDcBwJA,Bouche,4.5,786,$$$,"['delivery', 'pickup']",False,French,french,37.790254,-122.407361268997,US,CA,San Francisco,94108
Z_X0WvSmh9DUxBD9xhet9Q,Sam Wo Restaurant,4.0,1082,$,"['pickup', 'delivery']",False,Chinese,chinese,37.7942543029785,-122.405113220215,US,CA,San Francisco,94108
9Irn4OeTU8mj_BQ2HFQaww,The Vault Garden,4.0,130,$$$,['delivery'],False,"American (Traditional), Cocktail Bars","tradamerican, cocktailbars",37.79226,-122.40348,US,CA,San Francisco,94104
XWGSjN82azh6Op-tG4659Q,Luke's Lobster SoMa,3.5,422,$$,"['delivery', 'pickup']",False,Seafood,seafood,37.7880152,-122.4000381,US,CA,San Francisco,94105
fx_P3Mw4IPmpjH9RalImNQ,Tin Cactus,4.5,22,,,False,Mexican,mexican,37.791497,-122.4036872,US,CA,San Francisco,94104
aINJgFdqCjILgZdsVttnug,Kingbob,4.0,7,,['delivery'],False,Korean,korean,37.79442,-122.40386,US,CA,San Francisco,94111
ztL8KI0ed0snCiK88ZUfNw,Perbacco,4.0,2034,$$$,"['delivery', 'pickup']",False,"Italian, Bars","italian, bars",37.7934543812786,-122.399336635582,US,CA,San Francisco,94111
bvdEOVmFuWUV0sAALc_-zw,Harborview Restaurant & Bar,4.0,473,,"['delivery', 'restaurant_reservation', 'pickup']",False,"Chinese, Lounges, Seafood","chinese, lounges, seafood",37.794959,-122.395663,US,CA,San Francisco,94111
-h3g7n0ZUDcp8fcp_ffj3Q,Bini's Kitchen,4.5,222,$,"['pickup', 'delivery']",False,"Himalayan/Nepalese, Food Stands","himalayan, foodstands",37.7885210112459,-122.4027029875,US,CA,San Francisco,94104
WxxE5kE8omgQhJE8sWIvmA,Tadich Grill,4.0,2435,$$$,['delivery'],False,"Seafood, American (Traditional)","seafood, tradamerican",37.793431560349,-122.399468217791,US,CA,San Francisco,94111
if7l8HVMz7kmW0tG9l2LQA,E&O Kitchen and Bar,4.0,1070,$$,['delivery'],False,"Asian Fusion, Venues & Event Spaces","asianfusion, venues",37.789719,-122.405846,US,CA,San Francisco,94108
5I3fM8fRdkJdKL-_BJ1qvw,Michael Mina San Francisco,4.0,1233,$$$,"['delivery', 'pickup']",False,"Middle Eastern, Cocktail Bars, Wine Bars","mideastern, cocktailbars, wine_bars",37.7934609,-122.3996416,US,CA,San Francisco,94111
NFpgg-5mP8Zto_yrrz_a4g,The Treasury,4.0,159,$$,['delivery'],False,"Cocktail Bars, American (Traditional)","cocktailbars, tradamerican",37.7912937,-122.4010389,US,CA,San Francisco,94104
rMuLW1qVB-deU5NStYerWA,Sushirrito,4.0,1535,$$,"['delivery', 'pickup']",False,"Japanese, Sushi Bars, Asian Fusion","japanese, sushi, asianfusion",37.7902241805415,-122.403766215939,US,CA,San Francisco,94108
AoxdFkE06fQs_ZP0S0VRPw,Hops & Hominy,4.0,2114,$$,"['delivery', 'pickup']",False,"Southern, American (Traditional), Bars","southern, tradamerican, bars",37.789312,-122.405731,US,CA,San Francisco,94108
Q7_LfqaY3TrDaSIr7lk1TQ,City View Restaurant,4.0,1334,$$,"['delivery', 'pickup']",False,"Dim Sum, Cantonese","dimsum, cantonese",37.7943,-122.40409,US,CA,San Francisco,94111
ka1_lat2boQwLMsOCiwGiA,R&G Lounge,3.5,4483,$$,"['delivery', 'restaurant_reservation']",False,"Seafood, Cantonese","seafood, cantonese",37.7941240989441,-122.404937406342,US,CA,San Francisco,94108
gsf5yf5HS3h8Z8MHpJ4t3w,Cafe Claude,4.0,1990,$$$,['delivery'],False,"French, Venues & Event Spaces","french, venues",37.7903209516376,-122.404523903705,US,CA,San Francisco,94108
hXIWnr66-Z9x5lSDfPD76g,Little Red Riding Truck,4.0,99,$,,False,"German, Food Trucks","german, foodtrucks",37.7911148,-122.4021273,US,CA,San Francisco,94104
1EWkmc_myDLYfvorOnYzEA,Hinodeya Downtown,4.5,193,$$,"['delivery', 'pickup']",False,Ramen,ramen,37.794597,-122.404432,US,CA,San Francisco,94111
mRvr3toGkIeaUwI5RtW0Gw,Gaspar Brasserie,4.0,375,$$$,['delivery'],False,"Brasseries, French, Cocktail Bars","brasseries, french, cocktailbars",37.7896186379079,-122.40344702209,US,CA,San Francisco,94104
LLsG5k-XLbD-0Ow7wW7ifA,Trilogi SF,5.0,4,$$,,False,"Asian Fusion, Caterers","asianfusion, catering",37.7911148,-122.4021273,US,CA,San Francisco,94104
h4kKnPtEKrhimJGRNRvNBQ,Taco Guapo,4.0,21,$$,['delivery'],False,Tacos,tacos,37.79015,-122.40277,US,CA,San Francisco,94104
5nCCitxHCg-lhvMowbrs_A,La Fromagerie,4.5,246,$$,"['delivery', 'pickup']",False,"Salad, Cheese Shops, Sandwiches","salad, cheese, sandwiches",37.7905110535375,-122.402407899499,US,CA,San Francisco,94104
_8F_VkyCXRfmdGWVIjEBGA,Boutique Crenn X Cubert,4.5,8,,,False,Pop-Up Restaurants,popuprestaurants,37.789827,-122.396452,US,CA,San Francisco,94105
56gj15LDt8mcDIeKCbu-tg,Oren's Hummus,4.0,658,$$,"['delivery', 'restaurant_reservation', 'pickup']",False,"Mediterranean, Middle Eastern","mediterranean, mideastern",37.7866074,-122.4021922,US,CA,San Francisco,94103
BRz0ocqDzNlGS-AG1IpXtA,PABU Izakaya San Francisco,4.0,963,$$$,"['delivery', 'pickup']",False,"Japanese, Sushi Bars, Cocktail Bars","japanese, sushi, cocktailbars",37.792795,-122.397989,US,CA,San Francisco,94111
uhEyGINWYVfLFsl0DPHKFQ,Super Duper Burgers,4.0,323,$$,['delivery'],False,"Burgers, American (Traditional)","burgers, tradamerican",37.791465,-122.404003,US,CA,San Francisco,94108
dqd3qpeDZKsR0AaRiM9PvA,Trailblazer Tavern - San Francisco,4.0,341,,"['delivery', 'pickup']",False,Hawaiian,hawaiian,37.79089,-122.39669,US,CA,San Francisco,94105
IrfmgL_zZk3T_G8OzWoqMw,Tripleta,4.5,13,,,False,"Puerto Rican, Sandwiches","puertorican, sandwiches",37.761695,-122.424087,US,CA,San Francisco,94110
RTMeCUm9y6Lsz6TGGERPGg,Flour & Water Pasta Shop,5.0,1,,,False,"Salad, Pasta Shops, Sandwiches","salad, pastashops, sandwiches",37.759246,-122.411045,US,CA,San Francisco,94110
vmZ-bgnM5B76NUpegAjy1g,Hotbird,4.5,131,,,False,"Sandwiches, Chicken Shop, Burgers","sandwiches, chickenshop, burgers",37.7768004184036,-122.416263845447,US,CA,San Francisco,94103
TIvMX0RWgx15o5zwfWe2Pw,Schlok’s,4.5,3,,,False,"Pop-Up Restaurants, Bagels","popuprestaurants, bagels",37.790938,-122.434436,US,CA,San Francisco,94115
pgjbSwK_8DH2o_zQsr3dRQ,AshYan's Lu Ruo Fan,5.0,4,,,False,"Taiwanese, Food Delivery Services","taiwanese, fooddeliveryservices",37.77713,-122.41964,US,CA,San Francisco,
kn782Mw92uchlBI2CyosOQ,Tokyo Hot Chicken San Francisco,4.0,24,,"['pickup', 'delivery']",False,Chicken Shop,chickenshop,37.792886,-122.397979,US,CA,San Francisco,94111
sk2OH92GwQjFKbguoFWHSw,Uncle Tito,4.0,1,,,False,Filipino,filipino,37.776902,-122.415244,US,CA,San Francisco,94103
KA-P3d2NcbJy5SQN-vCzPA,Aria Korean Street Food,4.0,891,$$,"['pickup', 'delivery']",False,"Korean, Tapas/Small Plates, Chicken Shop","korean, tapasmallplates, chickenshop",37.78655,-122.41795,US,CA,San Francisco,94109
L5BYUnIYHKZOlQz8VxmCNQ,Mac Attack,4.5,13,,"['pickup', 'delivery']",False,American (Traditional),tradamerican,37.774818,-122.410742,US,CA,San Francisco,94103
oT08T3Vpn1I7jDmrBBRMTw,House of Prime Rib,4.0,7247,$$$,,False,"American (Traditional), Steakhouses, Wine Bars","tradamerican, steak, wine_bars",37.79338,-122.4225,US,CA,San Francisco,94109
kFgjHGp-cTUK5uPaSJOORA,Souvla,4.0,1418,$$,['delivery'],False,"Greek, Mediterranean","greek, mediterranean",37.77643,-122.425,US,CA,San Francisco,94102
YbUD7-Z2Be5thHaybd7ssQ,Alchemist Bar & Lounge,4.0,440,$$,['restaurant_reservation'],False,"Lounges, Cocktail Bars, American (New)","lounges, cocktailbars, newamerican",37.7791800203336,-122.392967912689,US,CA,San Francisco,94107
WOVHQYzSAdyXYOiYDTmujQ,The Bird,4.0,1923,$,['delivery'],False,"Chicken Shop, Sandwiches","chickenshop, sandwiches",37.78724,-122.39995,US,CA,San Francisco,94105
XVPiXV_TPivnr9szB5kc-A,Birdsong,4.5,274,$$$$,,False,American (New),newamerican,37.7793175,-122.4105235,US,CA,San Francisco,94103
8kck3-K4zYKTJbJko0JlXQ,Farmhouse Kitchen Thai Cuisine,4.0,2673,$$,"['pickup', 'delivery']",False,"Thai, Comfort Food","thai, comfortfood",37.760192883932795,-122.4114188698492,US,CA,San Francisco,94110
GjIO1jUDyaRwV0nS7WfQ7Q,Bellota,4.0,644,$$$,['delivery'],False,"Spanish, Seafood, Tapas Bars","spanish, seafood, tapas",37.772,-122.40526,US,CA,San Francisco,94103
lQv-kAI-ZOMPSJj909I1JQ,Sunset Slurps,4.5,29,,,False,"Vietnamese, Noodles, Soup","vietnamese, noodles, soup",37.773658,-122.416093,US,CA,San Francisco,94103
__V4jzP3SNrg3_n0QoDmcQ,Beyond Burma,4.0,98,$$,"['restaurant_reservation', 'pickup', 'delivery']",False,"Burmese, Indonesian, Noodles","burmese, indonesian, noodles",37.78784,-122.413565,US,CA,San Francisco,94109
iyo3pjuRb7mTpaDwXnAzuQ,Square Pie Guys,4.5,351,$$,"['pickup', 'delivery']",False,Pizza,pizza,37.779479,-122.4103136,US,CA,San Francisco,94103
VPXezwmTETrwitrzj9BZPA,Dumpling Time,4.0,2007,$$,"['pickup', 'delivery']",False,"Dim Sum, Asian Fusion","dimsum, asianfusion",37.7697533,-122.4022546,US,CA,San Francisco,94103
kvrQecqdGvnuVICMstZJmA,Dumpling Home,4.5,96,,"['pickup', 'delivery']",False,"Dim Sum, Noodles, Asian Fusion","dimsum, noodles, asianfusion",37.77571,-122.42257,US,CA,San Francisco,94102
SxHKYiRVnMd9BnTEaEB-FA,Chic n' Time,5.0,4,,"['pickup', 'delivery']",False,"Chicken Shop, Noodles, Asian Fusion","chickenshop, noodles, asianfusion",37.759907,-122.421268,US,CA,San Francisco,94110
XFUQWh46_gISC4jMHlCNmw,Dabao Singapore,5.0,39,,,False,Singaporean,singaporean,37.76342,-122.41751,US,CA,San Francisco,94110
dY0Mc_PHH6nLENvWmVtwxQ,Daeho Kalbijjim & Beef Soup,4.5,891,$$,"['pickup', 'delivery']",False,"Korean, Soup, Noodles","korean, soup, noodles",37.78601,-122.42858,US,CA,San Francisco,94115
Xg-FyjVKAN70LO4u4Z1ozg,Hog Island Oyster Co,4.5,6090,$$,,False,"Seafood, Seafood Markets, Live/Raw Food","seafood, seafoodmarkets, raw_food",37.795831,-122.393303,US,CA,San Francisco,94111
kqk5BoCJU59MC9fH0IB4wQ,Kin Khao,4.0,2138,$$,['delivery'],False,Thai,thai,37.7852278803726,-122.409348137336,US,CA,San Francisco,94102
ptFfsvzCDv4lf9d4i3hRZw,Moya,4.0,379,$$,"['pickup', 'delivery']",False,Ethiopian,ethiopian,37.776067,-122.414074,US,CA,San Francisco,94103
GmHNkpAaypi9jclaLI7sDQ,Fermentation Lab,4.5,292,$$,"['pickup', 'delivery']",False,Gastropubs,gastropubs,37.77852,-122.41561,US,CA,San Francisco,94102
AMhxom9yhQjTkFRMTKk_IA,WingSlut,4.5,11,,,False,"Chicken Wings, Fast Food, Asian Fusion","chicken_wings, hotdogs, asianfusion",37.776775,-122.416414,US,CA,San Francisco,94103
pxhNGH0mL_WHMAU4m3tB8A,Arepas En Bici,4.5,35,,,False,"Venezuelan, Personal Chefs, Caterers","venezuelan, personalchefs, catering",37.787152,-122.416361,US,CA,San Francisco,94109
d40PbnRah7AWH_dclw1h_Q,Rintaro,4.0,656,$$$,['delivery'],False,Izakaya,izakaya,37.76881,-122.41511,US,CA,San Francisco,94103
BXWpEh0BkpAe6uE_83k5VA,Sizzling Pot King,4.0,183,$$,['delivery'],False,Szechuan,szechuan,37.77722,-122.41251,US,CA,San Francisco,94103
iZ5NUxUFQZVue7O8NBeqFg,Reem's California,5.0,1,,,False,"Arabian, Pop-Up Restaurants","arabian, popuprestaurants",37.79556,-122.393418,US,CA,San Francisco,94111
lbZj8kCKlfZm3BmvPxzXvA,ChiliCali,5.0,18,,,False,"Pop-Up Restaurants, Caterers, Indonesian","popuprestaurants, catering, indonesian",37.7770186,-122.416524,US,CA,San Francisco,94103
VaEpEGJd5qmtpEjzGedXWw,Kiss My Seoul,4.5,34,,,False,"Korean, Caterers","korean, catering",37.7726402,-122.4099154,US,CA,San Francisco,94103
NIxLwW9mdYegtqhxmXjoaQ,Sunset Squares Pizza,3.5,12,,,False,Pizza,pizza,37.776902,-122.415244,US,CA,San Francisco,94103
kPRMsrxQhRC4NMX8Mord_A,Miss SaiGon,4.0,1143,$$,"['pickup', 'restaurant_reservation', 'delivery']",False,Vietnamese,vietnamese,37.7807121276855,-122.408767700195,US,CA,San Francisco,94103
Edjd2Z4Tr1XYy6yq6jMM2w,Papito Hayes,4.0,748,$$,['delivery'],False,Mexican,mexican,37.776635,-122.423396,US,CA,San Francisco,94102
HlDkf_7TxPLaPn882N1Nxw,Base Camp,5.0,47,,"['restaurant_reservation', 'pickup', 'delivery']",False,Himalayan/Nepalese,himalayan,37.75873,-122.41502,US,CA,San Francisco,94110
HHtpR0RslupSQ99GIIwW5A,Marufuku Ramen SF,4.5,3102,$$,"['pickup', 'delivery']",False,Ramen,ramen,37.785014,-122.431842,US,CA,San Francisco,94115
6U51i7YFYecl8Ong_Aq1hQ,RAVISHSF,5.0,1,,,False,American (New),newamerican,37.772878,-122.409926,US,CA,San Francisco,94103
UdRV_X0aah6c2_LLbB8dGg,Yama-chan,4.0,98,$,['delivery'],False,Japanese,japanese,37.785275,-122.429119,US,CA,San Francisco,94115
lqTCGG1LgzO1odQZbHHITw,Hetchy's Hots,4.5,62,,"['pickup', 'delivery']",False,"Chicken Shop, Sandwiches","chickenshop, sandwiches",37.779459,-122.410326,US,CA,San Francisco,94103
4rXyiTBn0b9xiuKkHoJ32g,Señor Sisig,4.0,199,$$,['delivery'],False,Filipino,filipino,37.757154,-122.421326,US,CA,San Francisco,94110
lJAGnYzku5zSaLnQ_T6_GQ,Brenda's French Soul Food,4.0,11058,$$,['delivery'],False,"Breakfast & Brunch, Southern, Cajun/Creole","breakfast_brunch, southern, cajun",37.7829016035273,-122.419043442957,US,CA,San Francisco,94102
KkAVX3Wb7E3lP5F_f_8pXg,Liholiho Yacht Club,4.5,2442,$$$,['delivery'],False,"Bars, American (New), Seafood","bars, newamerican, seafood",37.78818,-122.41458,US,CA,San Francisco,94109
G3nORz3a6ZnHkOwc7xppdw,Lucky Pig,4.0,188,$$,"['pickup', 'delivery']",False,Korean,korean,37.78509974066,-122.417556957263,US,CA,San Francisco,94109
GyBh5QsGham__kK7eJ2feQ,Box Kitchen,4.5,810,$$,['pickup'],False,"Food Stands, Burgers, Waffles","foodstands, burgers, waffles",37.7811510761365,-122.40636505138,US,CA,San Francisco,94103
H76UbTvcepqyQ7ZufDkJow,Akna,5.0,21,,,False,"Mexican, Pop-Up Restaurants","mexican, popuprestaurants",37.777726,-122.422991,US,CA,San Francisco,94102
sobu-HK7Pz6hQiZXJ847TQ,Woodbury,4.0,220,$$,"['restaurant_reservation', 'delivery']",False,Gastropubs,gastropubs,37.7790943635989,-122.392903892416,US,CA,San Francisco,94107
kn782Mw92uchlBI2CyosOQ,Tokyo Hot Chicken San Francisco,4.0,24,,"['delivery', 'pickup']",False,Chicken Shop,chickenshop,37.792886,-122.397979,US,CA,San Francisco,94111
Xg-FyjVKAN70LO4u4Z1ozg,Hog Island Oyster Co,4.5,6090,$$,,False,"Seafood, Seafood Markets, Live/Raw Food","seafood, seafoodmarkets, raw_food",37.795831,-122.393303,US,CA,San Francisco,94111
iZ5NUxUFQZVue7O8NBeqFg,Reem's California,5.0,1,,,False,"Arabian, Pop-Up Restaurants","arabian, popuprestaurants",37.79556,-122.393418,US,CA,San Francisco,94111
7Q3QIZz5UX-JSTSKKkRqDg,Waterbar,3.5,3129,$$$,"['delivery', 'pickup']",False,"Seafood, American (New), Live/Raw Food","seafood, newamerican, raw_food",37.7904941686413,-122.389039464859,US,CA,San Francisco,94105
WOVHQYzSAdyXYOiYDTmujQ,The Bird,4.0,1923,$,['delivery'],False,"Chicken Shop, Sandwiches","chickenshop, sandwiches",37.78724,-122.39995,US,CA,San Francisco,94105
PNxwbgtfdpldd3CyJFIw3w,Ozumo,4.0,2325,$$$,"['restaurant_reservation', 'delivery', 'pickup']",False,"Sushi Bars, Japanese, Steakhouses","sushi, japanese, steak",37.792673,-122.392236,US,CA,San Francisco,94105
xv8dq_jBNfQkHeX2wJGlAg,Coqueta,4.0,2114,$$$,"['delivery', 'pickup']",False,"Spanish, Tapas/Small Plates","spanish, tapasmallplates",37.798588,-122.396639,US,CA,San Francisco,94111
LysKaLPCFOdsUnlJC48Trg,Gozu,4.5,50,$$$$,['delivery'],False,"Japanese, Beer, Wine & Spirits","japanese, beer_and_wine",37.79123,-122.391975,US,CA,San Francisco,94105
5D--FJXQHdC3kZWYm2GREg,Barcha,4.0,500,$$,"['delivery', 'pickup']",False,"Mediterranean, Tapas/Small Plates","mediterranean, tapasmallplates",37.7909966558218,-122.397482693195,US,CA,San Francisco,94105
AlE1Ky-5yTAStPmry6pUeQ,Banh Mi King,4.0,46,,['delivery'],False,Vietnamese,vietnamese,37.79104,-122.39339,US,CA,San Francisco,94105
GXUEdea6q-bULIdDEZz0yw,Saison Smokehouse,4.5,61,,,False,"American (New), Barbeque","newamerican, bbq",37.79307,-122.39212,US,CA,San Francisco,94105
PsY5DMHxa5iNX_nX0T-qPA,Kokkari Estiatorio,4.5,4549,$$$,"['delivery', 'pickup']",False,"Greek, Mediterranean","greek, mediterranean",37.796996,-122.399661,US,CA,San Francisco,94111
0Sh-XNVgGDRwiN4K3UEQJA,Prospect,4.0,1559,$$$,['delivery'],False,American (New),newamerican,37.7899526059628,-122.390913963318,US,CA,San Francisco,94105
Qbr2JG96K6d31NqqAUxf9g,La Mar Cebichería Peruana,4.0,3806,$$$,"['delivery', 'pickup']",False,"Latin American, Seafood, Peruvian","latin, seafood, peruvian",37.7974182368553,-122.395129846558,US,CA,San Francisco,94111
_8F_VkyCXRfmdGWVIjEBGA,Boutique Crenn X Cubert,4.5,8,,,False,Pop-Up Restaurants,popuprestaurants,37.789827,-122.396452,US,CA,San Francisco,94105
bvdEOVmFuWUV0sAALc_-zw,Harborview Restaurant & Bar,4.0,473,,"['restaurant_reservation', 'delivery', 'pickup']",False,"Chinese, Lounges, Seafood","chinese, lounges, seafood",37.794959,-122.395663,US,CA,San Francisco,94111
Tttm1r5Dw1sRMCfc3EQWPw,Boulevard,4.0,2669,$$$,['delivery'],False,American (New),newamerican,37.79337,-122.39274,US,CA,San Francisco,94105
ykvr3ib1gHQHI4tznSn8iA,Wayfare Tavern,4.0,3944,$$$,"['delivery', 'pickup']",False,American (Traditional),tradamerican,37.794169,-122.402359,US,CA,San Francisco,94111
Ct5GgouaAvcegaaP4gR0EA,El Porteño Empanadas,4.0,800,$,['delivery'],False,"Argentine, Empanadas","argentine, empanadas",37.795599,-122.39341,US,CA,San Francisco,94111
Tyn-UqOTpVHtZAgrB0lWyQ,Town Hall,3.5,1967,$$$,"['delivery', 'pickup']",False,"American (New), Wine Bars, Cocktail Bars","newamerican, wine_bars, cocktailbars",37.7895383,-122.3949794,US,CA,San Francisco,94105
8bJr4G9QtbJ_tmEbVX6X4A,International Smoke San Francisco,4.0,1276,$$$,['delivery'],False,"Barbeque, American (New), Cocktail Bars","bbq, newamerican, cocktailbars",37.7909012077997,-122.395915071095,US,CA,San Francisco,94105
dqd3qpeDZKsR0AaRiM9PvA,Trailblazer Tavern - San Francisco,4.0,341,,"['delivery', 'pickup']",False,Hawaiian,hawaiian,37.79089,-122.39669,US,CA,San Francisco,94105
cvWuRzkFcf5KrEBiZEoYEA,Bask,4.0,665,$$,"['restaurant_reservation', 'pickup']",False,"Basque, Spanish, Tapas Bars","basque, spanish, tapas",37.7962703,-122.4041447,US,CA,San Francisco,94111
2DihFta_jZB8aAiL_zjp9A,EPIC Steak,3.5,2324,$$$,"['delivery', 'pickup']",False,"Steakhouses, Bars, Venues & Event Spaces","steak, bars, venues",37.790872,-122.389469,US,CA,San Francisco,94105
_oZ8X3onXs6TRgHBewJdYg,Sababa,4.5,17,,,False,"Middle Eastern, Falafel","mideastern, falafel",37.78930878452172,-122.399772869011,US,CA,San Francisco,94105
Wd5ho0_FKk9n7uV8pSCYIg,Barbacco,4.0,1622,$$,"['delivery', 'pickup']",False,"Italian, Bars","italian, bars",37.7935921194034,-122.399338591436,US,CA,San Francisco,94111
T7yx68dDBG33VJXXks5Fhw,YUBU By The Shota,4.5,53,,"['delivery', 'pickup']",False,"Japanese, Sushi Bars","japanese, sushi",37.79143,-122.401056,US,CA,San Francisco,94104
7dHj1XDVA_7AYXTfp5i-BQ,MOMO noodle,4.0,75,$$,"['delivery', 'pickup']",False,"Noodles, Food Trucks, Szechuan","noodles, foodtrucks, szechuan",37.791053771972656,-122.40193176269531,US,CA,San Francisco,94104
fK6ZCDLTFtPV9HT4oAo5-w,Roli Roti Gourmet Rotisserie,4.5,1473,$$,,False,"Sandwiches, Food Trucks, Specialty Food","sandwiches, foodtrucks, gourmet",37.795398235987,-122.392534017563,US,CA,San Francisco,94105
Jx_JunTUJf3OuRh3g9oSPw,DragonEats,4.0,397,$,['delivery'],False,Vietnamese,vietnamese,37.786299,-122.395604,US,CA,San Francisco,94105
mkwfPlHn2KmwDPe-EhGB5A,Super Duper Burgers,4.0,525,$$,['delivery'],False,"Burgers, American (Traditional)","burgers, tradamerican",37.7928058550794,-122.394083711639,US,CA,San Francisco,94105
vavslHAhF1QCjHwMOWmYrw,MARK ‘N MIKE’S,4.5,15,,,False,Delis,delis,37.79337,-122.39423,US,CA,San Francisco,94105
gNK0I5bJo8Rw-yB8FmvQBA,Angler,3.5,326,$$$$,['delivery'],False,"Seafood, Steakhouses","seafood, steak",37.79307,-122.39212,US,CA,San Francisco,94105
q2EbLD93gEO5uXXx7Pk3bw,Benu,4.5,1075,$$$$,"['delivery', 'pickup']",False,"American (New), Wine Bars, Seafood","newamerican, wine_bars, seafood",37.785402,-122.399068,US,CA,San Francisco,94105
HVJdo4f_6MxkM_1aCAK3NA,Cotogna,4.0,1477,$$$,['delivery'],False,Italian,italian,37.7975,-122.40336,US,CA,San Francisco,94133
SAFRM460dH7LHqYVAdoWgA,Yank Sing,3.5,2578,$$$,"['delivery', 'pickup']",False,"Dim Sum, Cantonese","dimsum, cantonese",37.7927224142545,-122.39312659859,US,CA,San Francisco,94105
XWGSjN82azh6Op-tG4659Q,Luke's Lobster SoMa,3.5,422,$$,"['delivery', 'pickup']",False,Seafood,seafood,37.7880152,-122.4000381,US,CA,San Francisco,94105
0FpTfyn_QiG7e6cjPjxKqQ,HI City,4.0,50,$$,"['delivery', 'pickup']",False,"Hawaiian, Poke, Filipino","hawaiian, poke, filipino",37.79139,-122.4013,US,CA,San Francisco,94104
1pq5mmp71nXWBK_jG9VxHg,Golden Star Vietnamese Restaurant,4.0,1233,$,['delivery'],False,"Vietnamese, Noodles, Soup","vietnamese, noodles, soup",37.7945505827665,-122.405742555857,US,CA,San Francisco,94108
IRD_9JUjR-06zztisuTdAA,Akiko's Restaurant,4.0,1906,$$$,['delivery'],False,"Sushi Bars, Japanese","sushi, japanese",37.790582,-122.404653,US,CA,San Francisco,94108
qXUzHmPdbGEt5EKSdWqbmg,Gott's Roadside,3.5,2717,$$,"['delivery', 'pickup']",False,"Ice Cream & Frozen Yogurt, Salad, Burgers","icecream, salad, burgers",37.7961786095916,-122.39410980362,US,CA,San Francisco,94111
wYCzKisVd8VV_lA5BiRXRA,Rooster & Rice,4.0,370,$$,"['delivery', 'pickup']",False,Thai,thai,37.785324,-122.395487,US,CA,San Francisco,94107
bUr4iq2mKKiBOu2HKynylg,HRD,4.0,2498,$$,"['delivery', 'pickup']",False,"Korean, Asian Fusion, Mexican","korean, asianfusion, mexican",37.7811065758548,-122.395329724426,US,CA,San Francisco,94107
BRz0ocqDzNlGS-AG1IpXtA,PABU Izakaya San Francisco,4.0,963,$$$,"['delivery', 'pickup']",False,"Japanese, Sushi Bars, Cocktail Bars","japanese, sushi, cocktailbars",37.792795,-122.397989,US,CA,San Francisco,94111
ztL8KI0ed0snCiK88ZUfNw,Perbacco,4.0,2034,$$$,"['delivery', 'pickup']",False,"Italian, Bars","italian, bars",37.7934543812786,-122.399336635582,US,CA,San Francisco,94111
Ke7IOhlPnWYbdfGgXp78MA,Fayala,4.5,271,$$,"['delivery', 'pickup']",False,"Mediterranean, Salad, Sandwiches","mediterranean, salad, sandwiches",37.78914,-122.3943,US,CA,San Francisco,94105
cHoNUKltOAJWSmNfsZ1h-w,Hunan Home's Restaurant,4.0,2193,$$,"['delivery', 'pickup']",False,Chinese,chinese,37.7964057922363,-122.405654907227,US,CA,San Francisco,94133
lOCewxz6QNegZbArImNBfw,The View Lounge,4.0,1773,$$,['delivery'],False,"Lounges, Cocktail Bars, Tapas/Small Plates","lounges, cocktailbars, tapasmallplates",37.7853662725987,-122.404355941664,US,CA,San Francisco,94103
Z_X0WvSmh9DUxBD9xhet9Q,Sam Wo Restaurant,4.0,1082,$,"['delivery', 'pickup']",False,Chinese,chinese,37.7942543029785,-122.405113220215,US,CA,San Francisco,94108
tE3f3i7FnDUzpufeqBzsVA,Merkado,4.5,20,,,False,Mexican,mexican,37.780293,-122.391464,US,CA,San Francisco,94107
u39mZEYojBiNic3lqKhPNw,Tacorea,4.5,1721,$$,,False,"Mexican, Korean, Latin American","mexican, korean, latin",37.7897794,-122.410717,US,CA,San Francisco,94108
mfD5wlWS6tY92FJHDcBwJA,Bouche,4.5,786,$$$,"['pickup', 'delivery']",False,French,french,37.790254,-122.407361268997,US,CA,San Francisco,94108
t5OypGYSwYIXKjkEQx3BNw,Hogwash,4.5,1052,$$,['delivery'],False,"Gastropubs, Beer Bar","gastropubs, beerbar",37.7891754,-122.4099292,US,CA,San Francisco,94102
__V4jzP3SNrg3_n0QoDmcQ,Beyond Burma,4.0,98,$$,"['restaurant_reservation', 'pickup', 'delivery']",False,"Burmese, Indonesian, Noodles","burmese, indonesian, noodles",37.78784,-122.413565,US,CA,San Francisco,94109
1pq5mmp71nXWBK_jG9VxHg,Golden Star Vietnamese Restaurant,4.0,1233,$,['delivery'],False,"Vietnamese, Noodles, Soup","vietnamese, noodles, soup",37.7945505827665,-122.405742555857,US,CA,San Francisco,94108
qsJYVZCxZNWMjMyMlsGl5A,New Fortune Restaurant,4.5,93,$,"['pickup', 'delivery']",False,Chinese,chinese,37.79335,-122.40801,US,CA,San Francisco,94108
mbmJRdYFNUKeV_toR0KfVA,Hopwater Distribution,4.5,713,$$,['delivery'],False,"American (Traditional), Beer Bar","tradamerican, beerbar",37.7899538528782,-122.411338984966,US,CA,San Francisco,94108
IRD_9JUjR-06zztisuTdAA,Akiko's Restaurant,4.0,1906,$$$,['delivery'],False,"Sushi Bars, Japanese","sushi, japanese",37.790582,-122.404653,US,CA,San Francisco,94108
cvWuRzkFcf5KrEBiZEoYEA,Bask,4.0,665,$$,"['pickup', 'restaurant_reservation']",False,"Basque, Spanish, Tapas Bars","basque, spanish, tapas",37.7962703,-122.4041447,US,CA,San Francisco,94111
KkAVX3Wb7E3lP5F_f_8pXg,Liholiho Yacht Club,4.5,2442,$$$,['delivery'],False,"Bars, American (New), Seafood","bars, newamerican, seafood",37.78818,-122.41458,US,CA,San Francisco,94109
2H4HtGBwT8KRfUuWmE3uAg,Bota Tapas & Paella Bar,4.0,287,$$$,"['restaurant_reservation', 'pickup', 'delivery']",False,"Spanish, Seafood, Tapas/Small Plates","spanish, seafood, tapasmallplates",37.786985807903,-122.411396958251,US,CA,San Francisco,94102
458NXhlB0ZtEaJUPI3PPcA,Tonga Room & Hurricane Bar,3.5,2709,$$$,"['pickup', 'delivery']",False,"Asian Fusion, Tiki Bars","asianfusion, tikibars",37.7924225140782,-122.409715868163,US,CA,San Francisco,94108
cem1stH61i39W57xQqvERQ,Mastro's Steakhouse,3.5,188,,"['pickup', 'delivery']",False,Steakhouses,steak,37.7870782,-122.4096563,US,CA,San Francisco,94102
f0c44sTsuLDmJO7tPCJ-tQ,Top of the Mark,3.5,1343,$$$,,False,"Breakfast & Brunch, Cocktail Bars, Tapas/Small Plates","breakfast_brunch, cocktailbars, tapasmallplates",37.791995,-122.410223,US,CA,San Francisco,94108
Z_X0WvSmh9DUxBD9xhet9Q,Sam Wo Restaurant,4.0,1082,$,"['pickup', 'delivery']",False,Chinese,chinese,37.7942543029785,-122.405113220215,US,CA,San Francisco,94108
yNMCITEPGh6cgqd6VDfQOg,Nob Hill Cafe,4.0,1352,$$,['delivery'],False,"Italian, Pizza","italian, pizza",37.7932599,-122.41262,US,CA,San Francisco,94108
H2IZSqvr71k9-tBn91mgrA,Del Popolo,4.0,465,$$,"['pickup', 'delivery']",False,Pizza,pizza,37.789627,-122.411374,US,CA,San Francisco,94108
mNFQuOA_hhrqmJeHg-AzKA,Rue Lepic,4.0,315,$$$,"['pickup', 'delivery']",False,French,french,37.7909867,-122.4108429,US,CA,San Francisco,94108
RWOXlFAOGpVa1Pzo_SjhdA,Fifth Arrow,4.5,90,$$,"['restaurant_reservation', 'delivery']",False,"American (New), Cocktail Bars, Bowling","newamerican, cocktailbars, bowling",37.78756,-122.40959,US,CA,San Francisco,94102
_BDoTBI2YlyUaWFOXBEF8Q,Sababa,4.5,340,$$,"['pickup', 'delivery']",False,"Mediterranean, Middle Eastern, Greek","mediterranean, mideastern, greek",37.7911832391356,-122.404289804399,US,CA,San Francisco,94108
if7l8HVMz7kmW0tG9l2LQA,E&O Kitchen and Bar,4.0,1070,$$,['delivery'],False,"Asian Fusion, Venues & Event Spaces","asianfusion, venues",37.789719,-122.405846,US,CA,San Francisco,94108
cHoNUKltOAJWSmNfsZ1h-w,Hunan Home's Restaurant,4.0,2193,$$,"['pickup', 'delivery']",False,Chinese,chinese,37.7964057922363,-122.405654907227,US,CA,San Francisco,94133
MDTJK0mH5Xc14aCwNuMg7Q,Uncle Vito's Pizza,4.0,1246,$$,['delivery'],False,"Pizza, Italian","pizza, italian",37.7901919931173,-122.408970594406,US,CA,San Francisco,94108
prl4rkVXnSj2eVUFv-VZqw,707 Sutter,4.0,727,$$,"['pickup', 'delivery']",False,Korean,korean,37.7886616504901,-122.412151023746,US,CA,San Francisco,94109
GzOumj6_QOeQByuc_0yajQ,Z & Y Restaurant,3.5,1761,$$,"['pickup', 'restaurant_reservation', 'delivery']",False,Chinese,chinese,37.7960764706099,-122.406014800072,US,CA,San Francisco,94133
AoxdFkE06fQs_ZP0S0VRPw,Hops & Hominy,4.0,2114,$$,"['pickup', 'delivery']",False,"Southern, American (Traditional), Bars","southern, tradamerican, bars",37.789312,-122.405731,US,CA,San Francisco,94108
DGFSR1FnCJWb_3-uksP4ng,Aliment,4.0,615,$$,"['pickup', 'delivery']",False,"American (New), Breakfast & Brunch, Cocktail Bars","newamerican, breakfast_brunch, cocktailbars",37.79012,-122.41019,US,CA,San Francisco,94108
-sg6DqQNGyTMt0MHoY7diQ,Good Mong Kok Bakery,4.0,2749,$,['delivery'],False,"Bakeries, Dim Sum, Cantonese","bakeries, dimsum, cantonese",37.7954584839809,-122.408358365012,US,CA,San Francisco,94108
mydKjdG8gJOcRQ9cZwkQpQ,Ryoko's,4.0,3012,$$,['delivery'],False,"Sushi Bars, Japanese, Bars","sushi, japanese, bars",37.7881987776243,-122.412059158087,US,CA,San Francisco,94102
7qK2Gwu0afQMtYFSJvvCqQ,Muracci's Japanese Curry & Grill,4.0,1735,$$,['pickup'],False,Japanese Curry,japacurry,37.791036,-122.404233,US,CA,San Francisco,94108
ka1_lat2boQwLMsOCiwGiA,R&G Lounge,3.5,4483,$$,"['restaurant_reservation', 'delivery']",False,"Seafood, Cantonese","seafood, cantonese",37.7941240989441,-122.404937406342,US,CA,San Francisco,94108
3a36_kQBI8dB32Dt2aEEHg,Gusto Pinsa Romana,5.0,352,$$,"['pickup', 'delivery']",False,"Pizza, Italian, Salad","pizza, italian, salad",37.7896740586658,-122.413919270039,US,CA,San Francisco,94109
aINJgFdqCjILgZdsVttnug,Kingbob,4.0,7,,['delivery'],False,Korean,korean,37.79442,-122.40386,US,CA,San Francisco,94111
0XtBuSGMhpMOMKRBjtJ4FA,The Big 4,4.0,651,$$$,['delivery'],False,"Lounges, American (New), Breakfast & Brunch","lounges, newamerican, breakfast_brunch",37.7914644,-122.4121171,US,CA,San Francisco,94108
9LwoAkemycBPpO08wqU7SA,Matador,4.0,629,$$,"['pickup', 'delivery']",False,"Mexican, Cocktail Bars","mexican, cocktailbars",37.78873,-122.41149,US,CA,San Francisco,94102
q4-O1WiUHKyppZ1QKY8eXA,Rice Bucket,4.0,7,,,False,"Food Trucks, Asian Fusion","foodtrucks, asianfusion",37.79097,-122.40894,US,CA,San Francisco,94108
C0whbbQhUMBv8X-Mmtqrcg,House of Nanking,3.5,3404,$$,"['pickup', 'delivery']",False,"Dim Sum, Cantonese, Noodles","dimsum, cantonese, noodles",37.79649,-122.405392,US,CA,San Francisco,94133
GnxzYamcJRd5NG94wGxdcw,Parallel 37,4.0,217,$$$$,['delivery'],False,"American (New), Cocktail Bars","newamerican, cocktailbars",37.7920146869889,-122.407165322754,US,CA,San Francisco,94108
oqdLxwkH63pGWEQlwQ301Q,Get Low Dumplings,5.0,4,,,False,"Pop-Up Restaurants, Dim Sum","popuprestaurants, dimsum",37.79097,-122.40894,US,CA,San Francisco Bay Area,94108
8GqReA8EJ3UGRuIFbd9jyQ,Chong Qing Xiao Mian,4.0,851,$$,['delivery'],False,"Noodles, Szechuan","noodles, szechuan",37.796386,-122.4053411,US,CA,San Francisco,94133
mt9_kC_-u3CEgjTLWzsJ9w,Pizza Dudes,4.5,2,,,False,Pizza,pizza,37.7922951,-122.408225,US,CA,San Francisco,94102
1EWkmc_myDLYfvorOnYzEA,Hinodeya Downtown,4.5,193,$$,"['pickup', 'delivery']",False,Ramen,ramen,37.794597,-122.404432,US,CA,San Francisco,94111
TRBP1G1l8vZkjgfqdx96Cw,Pearl's Deluxe Burgers,4.0,2224,$$,"['pickup', 'delivery']",False,Burgers,burgers,37.787823,-122.413699,US,CA,San Francisco,94109
Q7_LfqaY3TrDaSIr7lk1TQ,City View Restaurant,4.0,1334,$$,"['pickup', 'delivery']",False,"Dim Sum, Cantonese","dimsum, cantonese",37.7943,-122.40409,US,CA,San Francisco,94111
UqTdHGPBx730m5D51EOI6Q,Rooster & Rice,4.0,345,$$,"['pickup', 'delivery']",False,Thai,thai,37.78923,-122.40404,US,CA,San Francisco,94108
GoIbbBYDyr8W46YmxJct-g,Sons & Daughters,4.0,691,$$$$,,False,American (New),newamerican,37.7902634,-122.4090557,US,CA,San Francisco,94108
1EiMCJuOr-VoP2EIaiYmtQ,Far East Cafe,3.0,487,$$,"['pickup', 'delivery']",False,Chinese,chinese,37.79301,-122.40618,US,CA,San Francisco,94108
p22TPx1EFZcuEzl2qhuzGA,Mister Jiu's,4.0,710,$$$$,['delivery'],False,Chinese,chinese,37.7937724,-122.4067594,US,CA,San Francisco,94108
agUov63fwIufCj8t6pCivg,Pushkin,4.5,201,$,"['pickup', 'delivery']",False,"Russian, Ukrainian, Soup","russian, ukrainian, soup",37.791338,-122.403632,US,CA,San Francisco,94104
3ZOIUi6zNTMfJlz8Gu3asQ,Navin Thai Restaurant,4.0,208,$,"['pickup', 'delivery']",False,Thai,thai,37.794544,-122.409887,US,CA,San Francisco,94108
IrfmgL_zZk3T_G8OzWoqMw,Tripleta,4.5,13,,,False,"Puerto Rican, Sandwiches","puertorican, sandwiches",37.761695,-122.424087,US,CA,San Francisco,94110
RTMeCUm9y6Lsz6TGGERPGg,Flour & Water Pasta Shop,5.0,1,,,False,"Salad, Pasta Shops, Sandwiches","salad, pastashops, sandwiches",37.759246,-122.411045,US,CA,San Francisco,94110
kn782Mw92uchlBI2CyosOQ,Tokyo Hot Chicken San Francisco,4.0,24,,"['pickup', 'delivery']",False,Chicken Shop,chickenshop,37.792886,-122.397979,US,CA,San Francisco,94111
YbUD7-Z2Be5thHaybd7ssQ,Alchemist Bar & Lounge,4.0,440,$$,['restaurant_reservation'],False,"Lounges, Cocktail Bars, American (New)","lounges, cocktailbars, newamerican",37.7791800203336,-122.392967912689,US,CA,San Francisco,94107
TIvMX0RWgx15o5zwfWe2Pw,Schlok’s,4.5,3,,,False,"Pop-Up Restaurants, Bagels","popuprestaurants, bagels",37.790938,-122.434436,US,CA,San Francisco,94115
_ks6hcYTn_xBg2dwm9_ZDw,Hookt Doughnuts,4.5,106,$,"['pickup', 'delivery']",False,"Donuts, Desserts, Sandwiches","donuts, desserts, sandwiches",37.771073,-122.390689,US,CA,San Francisco,94158
HgwZt2453wZg3Uc3sYFGMQ,Chicken Dog Bagels,5.0,5,,,False,"Pop-Up Restaurants, Bagels","popuprestaurants, bagels",37.744075,-122.420555,US,CA,San Francisco,94110
Xg-FyjVKAN70LO4u4Z1ozg,Hog Island Oyster Co,4.5,6090,$$,,False,"Seafood, Seafood Markets, Live/Raw Food","seafood, seafoodmarkets, raw_food",37.795831,-122.393303,US,CA,San Francisco,94111
WOVHQYzSAdyXYOiYDTmujQ,The Bird,4.0,1923,$,['delivery'],False,"Chicken Shop, Sandwiches","chickenshop, sandwiches",37.78724,-122.39995,US,CA,San Francisco,94105
8kck3-K4zYKTJbJko0JlXQ,Farmhouse Kitchen Thai Cuisine,4.0,2673,$$,"['pickup', 'delivery']",False,"Thai, Comfort Food","thai, comfortfood",37.760192883932795,-122.4114188698492,US,CA,San Francisco,94110
VPXezwmTETrwitrzj9BZPA,Dumpling Time,4.0,2007,$$,"['delivery', 'pickup']",False,"Dim Sum, Asian Fusion","dimsum, asianfusion",37.7697533,-122.4022546,US,CA,San Francisco,94103
igwR5eEzfxFkL_56cG0jOw,Destapas,5.0,10,,,False,"Spanish, Tapas Bars, Wine Bars","spanish, tapas, wine_bars",37.7531052,-122.4068629,US,CA,San Francisco,94110
KA-P3d2NcbJy5SQN-vCzPA,Aria Korean Street Food,4.0,891,$$,"['pickup', 'delivery']",False,"Korean, Tapas/Small Plates, Chicken Shop","korean, tapasmallplates, chickenshop",37.78655,-122.41795,US,CA,San Francisco,94109
iZ5NUxUFQZVue7O8NBeqFg,Reem's California,5.0,1,,,False,"Arabian, Pop-Up Restaurants","arabian, popuprestaurants",37.79556,-122.393418,US,CA,San Francisco,94111
_1pt3zjz2Om9QC3OUSuTtA,Mahila,4.0,156,$$,"['delivery', 'restaurant_reservation', 'pickup']",False,Malaysian,malaysian,37.750925,-122.4342714,US,CA,San Francisco,94114
xv8dq_jBNfQkHeX2wJGlAg,Coqueta,4.0,2114,$$$,"['pickup', 'delivery']",False,"Spanish, Tapas/Small Plates","spanish, tapasmallplates",37.798588,-122.396639,US,CA,San Francisco,94111
oT08T3Vpn1I7jDmrBBRMTw,House of Prime Rib,4.0,7247,$$$,,False,"American (Traditional), Steakhouses, Wine Bars","tradamerican, steak, wine_bars",37.79338,-122.4225,US,CA,San Francisco,94109
JX4895Mr078YDiTsPRwWEA,Good Stuff,5.0,1,,,False,Restaurants,restaurants,37.7402929,-122.3968094,US,CA,San Francisco,94124
vmZ-bgnM5B76NUpegAjy1g,Hotbird,4.5,131,,,False,"Sandwiches, Chicken Shop, Burgers","sandwiches, chickenshop, burgers",37.7768004184036,-122.416263845447,US,CA,San Francisco,94103
SxHKYiRVnMd9BnTEaEB-FA,Chic n' Time,5.0,4,,"['pickup', 'delivery']",False,"Chicken Shop, Noodles, Asian Fusion","chickenshop, noodles, asianfusion",37.759907,-122.421268,US,CA,San Francisco,94110
7Q3QIZz5UX-JSTSKKkRqDg,Waterbar,3.5,3129,$$$,"['pickup', 'delivery']",False,"Seafood, American (New), Live/Raw Food","seafood, newamerican, raw_food",37.7904941686413,-122.389039464859,US,CA,San Francisco,94105
GjIO1jUDyaRwV0nS7WfQ7Q,Bellota,4.0,644,$$$,['delivery'],False,"Spanish, Seafood, Tapas Bars","spanish, seafood, tapas",37.772,-122.40526,US,CA,San Francisco,94103
XFUQWh46_gISC4jMHlCNmw,Dabao Singapore,5.0,39,,,False,Singaporean,singaporean,37.76342,-122.41751,US,CA,San Francisco,94110
pgjbSwK_8DH2o_zQsr3dRQ,AshYan's Lu Ruo Fan,5.0,4,,,False,"Taiwanese, Food Delivery Services","taiwanese, fooddeliveryservices",37.77713,-122.41964,US,CA,San Francisco,
TA0u_BzRvFKX2T8ujW6ozA,Hu Tong Jian Bing,4.5,18,,,False,"Chinese, Pop-Up Restaurants","chinese, popuprestaurants",37.7607059286985,-122.38838263971,US,CA,San Francisco,94107
sobu-HK7Pz6hQiZXJ847TQ,Woodbury,4.0,220,$$,"['delivery', 'restaurant_reservation']",False,Gastropubs,gastropubs,37.7790943635989,-122.392903892416,US,CA,San Francisco,94107
__V4jzP3SNrg3_n0QoDmcQ,Beyond Burma,4.0,98,$$,"['delivery', 'restaurant_reservation', 'pickup']",False,"Burmese, Indonesian, Noodles","burmese, indonesian, noodles",37.78784,-122.413565,US,CA,San Francisco,94109
3DNoAVehylJgUACvgXugJA,Rasa Rasa,5.0,41,,"['pickup', 'delivery']",False,"Food Trucks, Indonesian, Asian Fusion","foodtrucks, indonesian, asianfusion",37.7712452,-122.3911102,US,CA,San Francisco,94158
Sw2LX8kdsO3GBR9aP74e3g,Kin Khao Dogpatch,4.0,31,,,False,Thai,thai,37.7618054173704,-122.391766256303,US,CA,San Francisco,94107
SGRmnarrNuVEsAjYdEoA0w,El Farolito,4.0,4986,$,['delivery'],False,Mexican,mexican,37.75265,-122.41812,US,CA,San Francisco,94110
kFgjHGp-cTUK5uPaSJOORA,Souvla,4.0,1418,$$,['delivery'],False,"Greek, Mediterranean","greek, mediterranean",37.77643,-122.425,US,CA,San Francisco,94102
HlDkf_7TxPLaPn882N1Nxw,Base Camp,5.0,47,,"['pickup', 'delivery', 'restaurant_reservation']",False,Himalayan/Nepalese,himalayan,37.75873,-122.41502,US,CA,San Francisco,94110
c6ST9eYvEVa88wG2P0JQVw,Naked Chicken,4.0,15,$$,,False,"Thai, Chicken Shop, Food Trucks","thai, chickenshop, foodtrucks",37.7706935554346,-122.393549796531,US,CA,San Francisco,94124
8dUaybEPHsZMgr1iKgqgMQ,Sotto Mare Oysteria & Seafood,4.5,3843,$$,"['delivery', 'pickup']",False,"Seafood, Italian, Bars","seafood, italian, bars",37.79979,-122.40834,US,CA,San Francisco,94133
PsY5DMHxa5iNX_nX0T-qPA,Kokkari Estiatorio,4.5,4549,$$$,"['pickup', 'delivery']",False,"Greek, Mediterranean","greek, mediterranean",37.796996,-122.399661,US,CA,San Francisco,94111
kvFI8S8XuE0793DBR0wSbg,San Ho Won,5.0,30,,,False,Korean,korean,37.75944,-122.41017,US,CA,San Francisco,94110
4rXyiTBn0b9xiuKkHoJ32g,Señor Sisig,4.0,199,$$,['delivery'],False,Filipino,filipino,37.757154,-122.421326,US,CA,San Francisco,94110
_PEiTpmT2gGp5cObcnKRPQ,SF Kebab,4.0,328,$$,['pickup'],False,"Mediterranean, Middle Eastern, Kebab","mediterranean, mideastern, kebab",37.767008,-122.3901191,US,CA,San Francisco,94158
kqk5BoCJU59MC9fH0IB4wQ,Kin Khao,4.0,2138,$$,['delivery'],False,Thai,thai,37.7852278803726,-122.409348137336,US,CA,San Francisco,94102
PgJV1wOtwTuoUz_n5Mcyxw,Tacos El Patrón,4.0,431,$$,['delivery'],False,Tacos,tacos,37.748949,-122.416138,US,CA,San Francisco,94110
mvPT__X1KlyDx78Ol2E4dQ,Brazuca Grill,5.0,8,,,False,"Brazilian, Food Trucks","brazilian, foodtrucks",37.7580894,-122.3916149,US,CA,San Francisco,94107
pCo6N707ezGZCoVF-t5l5A,Sunday Gather,4.5,85,$,"['pickup', 'delivery']",False,"Cafes, Hawaiian, Bakeries","cafes, hawaiian, bakeries",37.740334,-122.3891112,US,CA,San Francisco,94124
jVWSk4YEohGVdvApG3eFsw,Pinoy Heritage,5.0,17,,,False,"Filipino, Pop-Up Restaurants","filipino, popuprestaurants",37.75957,-122.39387,US,CA,San Francisco,94107
dY0Mc_PHH6nLENvWmVtwxQ,Daeho Kalbijjim & Beef Soup,4.5,891,$$,"['delivery', 'pickup']",False,"Korean, Soup, Noodles","korean, soup, noodles",37.78601,-122.42858,US,CA,San Francisco,94115
UTVDbZv-qiHU06sDkoel3g,Chez Maman East,4.5,2111,$$,"['delivery', 'pickup']",False,"French, Burgers, Creperies","french, burgers, creperies",37.762463,-122.396712,US,CA,San Francisco,94107
vrKMJfA4iUQPkFocQTDLXw,El Sur,4.5,137,$,"['pickup', 'delivery']",False,"Argentine, Food Trucks, Empanadas","argentine, foodtrucks, empanadas",37.76573,-122.40202,US,CA,San Francisco,94103
Qbr2JG96K6d31NqqAUxf9g,La Mar Cebichería Peruana,4.0,3806,$$$,"['pickup', 'delivery']",False,"Latin American, Seafood, Peruvian","latin, seafood, peruvian",37.7974182368553,-122.395129846558,US,CA,San Francisco,94111
kvrQecqdGvnuVICMstZJmA,Dumpling Home,4.5,96,,"['delivery', 'pickup']",False,"Dim Sum, Noodles, Asian Fusion","dimsum, noodles, asianfusion",37.77571,-122.42257,US,CA,San Francisco,94102
pxhNGH0mL_WHMAU4m3tB8A,Arepas En Bici,4.5,35,,,False,"Venezuelan, Personal Chefs, Caterers","venezuelan, personalchefs, catering",37.787152,-122.416361,US,CA,San Francisco,94109
ykvr3ib1gHQHI4tznSn8iA,Wayfare Tavern,4.0,3944,$$$,"['pickup', 'delivery']",False,American (Traditional),tradamerican,37.794169,-122.402359,US,CA,San Francisco,94111
HgwZt2453wZg3Uc3sYFGMQ,Chicken Dog Bagels,5.0,5,,,False,"Pop-Up Restaurants, Bagels","popuprestaurants, bagels",37.744075,-122.420555,US,CA,San Francisco,94110
PgJV1wOtwTuoUz_n5Mcyxw,Tacos El Patrón,4.0,431,$$,['delivery'],False,Tacos,tacos,37.748949,-122.416138,US,CA,San Francisco,94110
gN4Jrrv8AaCrOSr8Y1JK5w,Man vs Fries,4.0,38,,"['delivery', 'pickup']",False,"Mexican, Pop-Up Restaurants","mexican, popuprestaurants",37.7474,-122.41794,US,CA,San Francisco,94110
0A_ZUL5r8wwL1oWnzmqSog,Komaaj,5.0,52,,"['delivery', 'pickup']",False,"Persian/Iranian, Diners, Cafes","persian, diners, cafes",37.7489738,-122.4172932,US,CA,San Francisco,94110
Ef6W1bNPINIc1sELv-FAnQ,Marlena Restaurant,5.0,40,,,False,American (New),newamerican,37.746616,-122.413345,US,CA,San Francisco,94110
IrfmgL_zZk3T_G8OzWoqMw,Tripleta,4.5,13,,,False,"Puerto Rican, Sandwiches","puertorican, sandwiches",37.761695,-122.424087,US,CA,San Francisco,94110
XFUQWh46_gISC4jMHlCNmw,Dabao Singapore,5.0,39,,,False,Singaporean,singaporean,37.76342,-122.41751,US,CA,San Francisco,94110
wxzx3duu1c0CcomzEOvfOQ,The Front Porch,4.0,2880,$$,"['delivery', 'restaurant_reservation', 'pickup']",False,"Southern, Cajun/Creole, American (Traditional)","southern, cajun, tradamerican",37.7438,-122.422035,US,CA,San Francisco,94110
9O4Y33B0JI2z9s_NsXNpGg,Peaches Patties,4.5,66,$$,['delivery'],False,Caribbean,caribbean,37.750142,-122.414113,US,CA,San Francisco,94110
SxHKYiRVnMd9BnTEaEB-FA,Chic n' Time,5.0,4,,"['delivery', 'pickup']",False,"Chicken Shop, Noodles, Asian Fusion","chickenshop, noodles, asianfusion",37.759907,-122.421268,US,CA,San Francisco,94110
_1pt3zjz2Om9QC3OUSuTtA,Mahila,4.0,156,$$,"['delivery', 'restaurant_reservation', 'pickup']",False,Malaysian,malaysian,37.750925,-122.4342714,US,CA,San Francisco,94114
02wUJF0661zMeXLgArujlg,United Dumplings,4.5,70,,"['delivery', 'pickup']",False,"Chinese, Asian Fusion, Noodles","chinese, asianfusion, noodles",37.739223,-122.416008,US,CA,San Francisco,94110
RTMeCUm9y6Lsz6TGGERPGg,Flour & Water Pasta Shop,5.0,1,,,False,"Salad, Pasta Shops, Sandwiches","salad, pastashops, sandwiches",37.759246,-122.411045,US,CA,San Francisco,94110
EP7wWVVI0oPckKgm6bHQzg,RakiRaki by Junya Watanabe,3.5,241,,"['delivery', 'pickup']",False,"Ramen, Sushi Bars","ramen, sushi",37.7444,-122.420922,US,CA,San Francisco,94110
8kck3-K4zYKTJbJko0JlXQ,Farmhouse Kitchen Thai Cuisine,4.0,2673,$$,"['delivery', 'pickup']",False,"Thai, Comfort Food","thai, comfortfood",37.760192883932795,-122.4114188698492,US,CA,San Francisco,94110
kvFI8S8XuE0793DBR0wSbg,San Ho Won,5.0,30,,,False,Korean,korean,37.75944,-122.41017,US,CA,San Francisco,94110
wgxOKHZPprR9Ihgr2y-OQQ,Emmy's Spaghetti Shack,4.0,569,$$,"['pickup', 'restaurant_reservation', 'delivery']",False,Italian,italian,37.7451515,-122.4205093,US,CA,San Francisco,94110
SGRmnarrNuVEsAjYdEoA0w,El Farolito,4.0,4986,$,['delivery'],False,Mexican,mexican,37.75265,-122.41812,US,CA,San Francisco,94110
JARsJVKLPgs_yC3cwDnp7g,La Taqueria,4.0,4154,$,['delivery'],False,Mexican,mexican,37.75088,-122.41805,US,CA,San Francisco,94110
AjQYQsVEJQUOXnddE-2WIw,Seoul Train,4.0,2,,['delivery'],False,Korean,korean,37.7501,-122.394986,US,CA,San Francisco,94124
t89AwpenhtiGah_EOyHN0w,Mission Boricua,4.5,3,,,False,Puerto Rican,puertorican,37.75017,-122.4142,US,CA,San Francisco,94110
vsiJDU-0_cdYrf1Otawtbw,Piqueo's,4.0,681,$$$,['delivery'],False,"Latin American, Peruvian","latin, peruvian",37.7387299,-122.41407,US,CA,San Francisco,94110
wEpiKz--Z2b1q_FSCCNiow,Lolinda,4.0,2011,$$$,['delivery'],False,"Steakhouses, Tapas/Small Plates, Latin American","steak, tapasmallplates, latin",37.7566658,-122.419116,US,CA,San Francisco,94110
g8MVssDAAYMutOa_r5fjTQ,El Coreano Korean Mexican Food,4.5,16,,['delivery'],False,"Korean, Mexican, Asian Fusion","korean, mexican, asianfusion",37.754506,-122.409111,US,CA,San Francisco,94110
4rXyiTBn0b9xiuKkHoJ32g,Señor Sisig,4.0,199,$$,['delivery'],False,Filipino,filipino,37.757154,-122.421326,US,CA,San Francisco,94110
GyGNciKqyJ3ELHmw9jMeRA,Souvla,4.0,380,$$,['delivery'],False,"Greek, Mediterranean","greek, mediterranean",37.76082,-122.42181,US,CA,San Francisco,94110
4Y4BXcmERpH_SnMEWQ4RTw,Bac Lieu Restaurant,4.5,204,$$,['delivery'],False,"Vietnamese, Noodles, Soup","vietnamese, noodles, soup",37.745267,-122.420402,US,CA,San Francisco,94110
RGeS1J38e5PmDOiGS-7bOA,Shish Ke Baba,5.0,287,$$,['delivery'],False,"Kebab, Turkish, Mediterranean","kebab, turkish, mediterranean",37.742213,-122.423143,US,CA,San Francisco,94110
HlDkf_7TxPLaPn882N1Nxw,Base Camp,5.0,47,,"['pickup', 'restaurant_reservation', 'delivery']",False,Himalayan/Nepalese,himalayan,37.75873,-122.41502,US,CA,San Francisco,94110
VcJzpsjaPi8HZ8zXI6GMOQ,Dear Inga,4.5,68,$$$,['delivery'],False,"Cocktail Bars, Hungarian, Modern European","cocktailbars, hungarian, modern_european",37.76183,-122.42292,US,CA,San Francisco,94110
lgD2BDiMtW3UhM6rk3IUNw,Chicken as Cluck,4.0,161,$$,"['pickup', 'delivery']",False,"Chicken Shop, Food Delivery Services","chickenshop, fooddeliveryservices",37.7505862896473,-122.395178442908,US,CA,San Francisco,94124
6DwkkIwLMxwMb1WXs4rtSg,Los Yaquis,4.0,46,,"['delivery', 'pickup']",False,Mexican,mexican,37.7469018579803,-122.413782,US,CA,San Francisco,94110
qTaAQU4yq2mMQXJLml7new,Cellarmaker House of Pizza,4.0,153,$$,['delivery'],False,"Pizza, Breweries","pizza, breweries",37.7457348194642,-122.419612593949,US,CA,San Francisco,94110
xRxqebiQobZqJIRtDxnZsA,AL's Place,4.0,792,$$$,['delivery'],False,American (New),newamerican,37.7490078521491,-122.42025397718,US,CA,San Francisco,94110
rxY7canIJeXtICb6lprUcQ,Blue Plate,4.0,1445,$$$,"['pickup', 'restaurant_reservation', 'delivery']",False,"American (Traditional), Comfort Food, Wine Bars","tradamerican, comfortfood, wine_bars",37.74523,-122.42033,US,CA,San Francisco,94110
IEcPu1HtVJfmPrRSGVMXiQ,3rd Cousin,4.0,291,$$$,['pickup'],False,American (New),newamerican,37.73907,-122.41366,US,CA,San Francisco,94110
cCVe4vppMNYQf9vguaf9Eg,Seafood Station,5.0,25,$$,,False,"Seafood, Cajun/Creole, American (New)","seafood, cajun, newamerican",37.73901,-122.41446,US,CA,San Francisco,94110
D1-_5ff4aic1-7rLqzUd4g,Yamo,4.0,1988,$,['delivery'],False,"Burmese, Chinese","burmese, chinese",37.7619463343878,-122.419764563536,US,CA,San Francisco,94110
_-7VgjSfibitQ1-TBvE0Aw,Mau,4.0,902,$$,"['pickup', 'delivery']",False,Vietnamese,vietnamese,37.76223,-122.42134,US,CA,San Francisco,94110
kUxtjTa2vCSWQvr00YwxQw,Kazan,4.5,442,$$,"['delivery', 'restaurant_reservation']",False,"Japanese, Sushi Bars, Soup","japanese, sushi, soup",37.752694,-122.408469,US,CA,San Francisco,94110
zKW2G8DcIgsMn1H3o2zSRg,Saucy Bandits,5.0,17,,['delivery'],False,"Vegan, Southern, Burgers","vegan, southern, burgers",37.740006,-122.409366,US,CA,San Francisco,94110
imHjAJ9uuUK_PNkzT9kCag,Basa Seafood Express,4.5,724,$,"['delivery', 'pickup']",False,"Seafood, Sandwiches, Burgers","seafood, sandwiches, burgers",37.75276,-122.41338,US,CA,San Francisco,94110
v3qnV929O7VFRVUB5hd72A,SF Chickenbox,4.5,102,,"['delivery', 'pickup']",False,"Chicken Shop, Sandwiches, Soul Food","chickenshop, sandwiches, soulfood",37.7597582,-122.4212092,US,CA,San Francisco,94110
JX4895Mr078YDiTsPRwWEA,Good Stuff,5.0,1,,,False,Restaurants,restaurants,37.7402929,-122.3968094,US,CA,San Francisco,94124
KRcMsXmeILmC8OXmcXOQgA,Picaro,4.0,1616,$$,"['delivery', 'pickup']",False,"Spanish, Basque, Tapas Bars","spanish, basque, tapas",37.765051,-122.42246,US,CA,San Francisco,94103
qxDLT24j7-LxPb7lzRXxCg,Pho Nation,4.5,22,,"['delivery', 'pickup']",False,Vietnamese,vietnamese,37.73166,-122.4056,US,CA,San Francisco,94134
qKmtzhb79_GSCDdq8Bf2wA,Kusan Uyghur Cuisine,5.0,6,,"['delivery', 'pickup']",False,"Halal, Asian Fusion, Middle Eastern","halal, asianfusion, mideastern",37.736819,-122.405298,US,CA,San Francisco,94124
Wpu06GbaMorLXfbN5s0spg,Mission Street Oyster Bar & Seafood Restaurant,4.0,617,$$,"['delivery', 'restaurant_reservation', 'pickup']",False,"Seafood, Fish & Chips","seafood, fishnchips",37.76057,-122.41954,US,CA,San Francisco,94110
r7RwvYMwxDuK3u26fHbYDA,Limon Rotisserie,4.0,3221,$$,"['pickup', 'delivery']",False,"Peruvian, Tapas/Small Plates","peruvian, tapasmallplates",37.7570514,-122.416461,US,CA,San Francisco,94110
xQQ3qLbjxI4DwQoFLWqsNA,El Rinconcito Nicaraguense,4.0,49,$$,['delivery'],False,Nicaraguan,nicaraguan,37.74996,-122.41788,US,CA,San Francisco,94110
TIvMX0RWgx15o5zwfWe2Pw,Schlok’s,4.5,3,,,False,"Pop-Up Restaurants, Bagels","popuprestaurants, bagels",37.790938,-122.434436,US,CA,San Francisco,94115
xalJwUiV9oMDCHCc6kZhqg,SSAL,4.5,126,$$$,['delivery'],False,Korean,korean,37.79728333,-122.421945,US,CA,San Francisco,94109
9BxwybESMtcZsXBO0K-axA,Berber,4.5,259,$$,"['pickup', 'delivery', 'restaurant_reservation']",False,"Mediterranean, Moroccan, Lounges","mediterranean, moroccan, lounges",37.79611886,-122.42216912,US,CA,San Francisco,94109
2Mf1yO8mWcUMdnwDpSzWww,MAC'D,4.0,284,$$,"['pickup', 'delivery']",False,Comfort Food,comfortfood,37.7962,-122.42211,US,CA,San Francisco,94109
sec_72MjQnif4OvsqJ2pUA,Macondray,4.5,66,$$,['delivery'],False,"Cocktail Bars, American (Traditional)","cocktailbars, tradamerican",37.797113,-122.422249,US,CA,San Francisco,94109
ziVej4oW2JpUConTE_Y_mg,Nick's Crispy Tacos,4.0,3384,$$,"['pickup', 'delivery']",False,"Mexican, Sports Bars","mexican, sportsbars",37.79607,-122.42196,US,CA,San Francisco,94109
PDhfVvcVXgBinZf5I6s1KQ,The Codmother Fish & Chips,4.5,3009,$$,"['pickup', 'delivery']",False,"British, Fish & Chips, Seafood","british, fishnchips, seafood",37.8072702557489,-122.417093771758,US,CA,San Francisco,94133
yPcl46f-zZNmTC7XjPAI4A,Souvla,4.0,99,$$,['delivery'],False,"Greek, Mediterranean","greek, mediterranean",37.80038,-122.44092,US,CA,San Francisco,94123
hnoOXDcgN4xqLOU6lplGXg,Street Restaurant and Bar,4.0,636,$$,['delivery'],False,American (New),newamerican,37.7964394,-122.4220352,US,CA,San Francisco,94109
kFgjHGp-cTUK5uPaSJOORA,Souvla,4.0,1418,$$,['delivery'],False,"Greek, Mediterranean","greek, mediterranean",37.77643,-122.425,US,CA,San Francisco,94102
xv8dq_jBNfQkHeX2wJGlAg,Coqueta,4.0,2114,$$$,"['pickup', 'delivery']",False,"Spanish, Tapas/Small Plates","spanish, tapasmallplates",37.798588,-122.396639,US,CA,San Francisco,94111
kn782Mw92uchlBI2CyosOQ,Tokyo Hot Chicken San Francisco,4.0,24,,"['pickup', 'delivery']",False,Chicken Shop,chickenshop,37.792886,-122.397979,US,CA,San Francisco,94111
QQkroHtwS96-dzMpT4a-DA,Delarosa,4.0,1578,$$,['restaurant_reservation'],False,"Italian, Cocktail Bars, Pizza","italian, cocktailbars, pizza",37.800287,-122.439110224537,US,CA,San Francisco,94123
vmZ-bgnM5B76NUpegAjy1g,Hotbird,4.5,131,,,False,"Sandwiches, Chicken Shop, Burgers","sandwiches, chickenshop, burgers",37.7768004184036,-122.416263845447,US,CA,San Francisco,94103
zkVm2lMNdKWfbE4Uo1tMeA,Abrazo,4.5,71,,['delivery'],False,"Spanish, American (New), Seafood","spanish, newamerican, seafood",37.7994,-122.41888,US,CA,San Francisco,94109
_TVBDjUzNKi4HEmUT4yPGA,KAIYŌ,4.0,327,,"['delivery', 'restaurant_reservation']",False,"Japanese, Peruvian, Cocktail Bars","japanese, peruvian, cocktailbars",37.79801,-122.42967,US,CA,San Francisco,94123
KA-P3d2NcbJy5SQN-vCzPA,Aria Korean Street Food,4.0,891,$$,"['pickup', 'delivery']",False,"Korean, Tapas/Small Plates, Chicken Shop","korean, tapasmallplates, chickenshop",37.78655,-122.41795,US,CA,San Francisco,94109
Rx1jsWM0Ja8DIBTJhL0hNQ,Matterhorn Restaurant & Bakery,4.5,46,,,False,"Modern European, Fondue","modern_european, fondue",37.797199,-122.423964,US,CA,San Francisco,94109
e2aA95s3lbjHu4jza-l-eA,Serafina,5.0,20,,"['pickup', 'delivery']",False,Italian,italian,37.796928,-122.415427,US,CA,San Francisco,94109
dTWMVRcMVC4zynbFQC7A2A,Seven Hills,4.5,1058,$$$,,False,"Italian, Seafood, Wine Bars","italian, seafood, wine_bars",37.7981712,-122.4186984,US,CA,San Francisco,94109
FL0mwMm33o05MX-gvmX_kA,Miguelito's,5.0,24,,,False,"Pop-Up Restaurants, Mexican","popuprestaurants, mexican",37.7994,-122.41888,US,CA,San Francisco,94109
oT08T3Vpn1I7jDmrBBRMTw,House of Prime Rib,4.0,7247,$$$,,False,"American (Traditional), Steakhouses, Wine Bars","tradamerican, steak, wine_bars",37.79338,-122.4225,US,CA,San Francisco,94109
DgfhciOcB9X7SXFFQR7t9w,Blue Barn Gourmet,4.0,545,$$,['delivery'],False,"Salad, Delis, Sandwiches","salad, delis, sandwiches",37.797486,-122.422348,US,CA,San Francisco,94109
s6qUvb3LGcQtS38AG2i74Q,Lord Stanley,4.0,299,$$$,['delivery'],False,"Modern European, American (New)","modern_european, newamerican",37.7958004086749,-122.421939410269,US,CA,San Francisco,94109
qPTvIlJ5NSW23KjjtHltPQ,The Little Chihuahua,3.5,61,,,False,Mexican,mexican,37.7902325921,-122.420717778,US,CA,San Francisco,94109
7kp4bobus_2hVlj5Hlv73A,Fiorella -Polk,3.5,130,$$,"['pickup', 'delivery']",False,"Pizza, Italian","pizza, italian",37.79749,-122.4218,US,CA,San Francisco,94109
8dUaybEPHsZMgr1iKgqgMQ,Sotto Mare Oysteria & Seafood,4.5,3843,$$,"['pickup', 'delivery']",False,"Seafood, Italian, Bars","seafood, italian, bars",37.79979,-122.40834,US,CA,San Francisco,94133
cCVR9W_L2rqexfKAjfBTzQ,Routier,5.0,15,,,False,French,french,37.78789,-122.440595,US,CA,San Francisco,94115
FqYg7BcsryLFiUTknxpQpw,Harris' Restaurant,4.0,1859,$$$$,,False,Steakhouses,steak,37.79508,-122.42287,US,CA,San Francisco,94109
K9XVDlPNhrrSVEJN7uWqJQ,The Italian Homemade Company,4.5,1548,$$,"['pickup', 'delivery']",False,"Italian, Pasta Shops, International Grocery","italian, pastashops, intlgrocery",37.801752,-122.411851,US,CA,San Francisco,94133
xO2V0wkXP3Na-mWhLo1ZxQ,Cocotte,4.0,539,$$$,['pickup'],False,French,french,37.7948581,-122.4183072,US,CA,San Francisco,94109
__V4jzP3SNrg3_n0QoDmcQ,Beyond Burma,4.0,98,$$,"['pickup', 'delivery', 'restaurant_reservation']",False,"Burmese, Indonesian, Noodles","burmese, indonesian, noodles",37.78784,-122.413565,US,CA,San Francisco,94109
sQavxElZ71EGMrQ1zktn8Q,Leopold's,4.5,1047,$$,"['pickup', 'delivery']",False,"German, Austrian, Bars","german, austrian, bars",37.79892,-122.42207,US,CA,San Francisco,94109
I8T8aoAsFQYwQiRvLBayFA,Il Casaro Pizzeria & Mozzarella Bar - North Beach Location,4.5,1230,$$,"['pickup', 'delivery', 'restaurant_reservation']",False,"Italian, Pizza","italian, pizza",37.79852,-122.40739,US,CA,San Francisco,94133
NwqdohySKrDnK0RsAde9UA,Hot Sauce and Panko,4.5,1176,$$,"['pickup', 'delivery']",False,"Chicken Wings, Waffles, Sandwiches","chicken_wings, waffles, sandwiches",37.794505,-122.417957,US,CA,San Francisco,94109
cvWuRzkFcf5KrEBiZEoYEA,Bask,4.0,665,$$,"['pickup', 'restaurant_reservation']",False,"Basque, Spanish, Tapas Bars","basque, spanish, tapas",37.7962703,-122.4041447,US,CA,San Francisco,94111
OCk8JFBaOw_p2EY6mi5iLQ,Amélie,4.0,1353,$$,"['pickup', 'delivery', 'restaurant_reservation']",False,"Wine Bars, Lounges, French","wine_bars, lounges, french",37.7931200864529,-122.420906547632,US,CA,San Francisco,94109
FRpULkKmvD9caSKabQzq5w,The Italian Homemade Company,4.5,973,$$,"['pickup', 'delivery']",False,"Italian, Pasta Shops, Desserts","italian, pastashops, desserts",37.79742,-122.43097,US,CA,San Francisco,94123
QZQGRJZ4bZCmNoXjs3z1XQ,State Bird Provisions,4.0,2777,$$$,['delivery'],False,"Tapas/Small Plates, American (New), Desserts","tapasmallplates, newamerican, desserts",37.78374,-122.433005,US,CA,San Francisco,94115
WOVHQYzSAdyXYOiYDTmujQ,The Bird,4.0,1923,$,['delivery'],False,"Chicken Shop, Sandwiches","chickenshop, sandwiches",37.78724,-122.39995,US,CA,San Francisco,94105
1pq5mmp71nXWBK_jG9VxHg,Golden Star Vietnamese Restaurant,4.0,1233,$,['delivery'],False,"Vietnamese, Noodles, Soup","vietnamese, noodles, soup",37.7945505827665,-122.405742555857,US,CA,San Francisco,94108
VBWSJA_ljUoqB0voZFbJFQ,The Patio,4.5,73,,"['pickup', 'delivery']",False,"Wine Bars, American (New), Venues & Event Spaces","wine_bars, newamerican, venues",37.79976,-122.44082,US,CA,San Francisco,94123
SIlvau33Tsp5IuEEmGf46A,Amarena,4.0,590,$$,"['pickup', 'delivery']",False,Italian,italian,37.7976935,-122.4202447,US,CA,San Francisco,94109
XR4giIOCQ5D-mxtOPUUY_Q,Palette Tea House,4.0,657,,"['pickup', 'delivery', 'restaurant_reservation']",False,"Dim Sum, Seafood, Cantonese","dimsum, seafood, cantonese",37.80585,-122.42292,US,CA,San Francisco,94109
Cj9Orl6DQnOR75qT-l3jCA,Aux Delices Vietnamese Restaurant,4.0,741,$$,"['pickup', 'delivery']",False,Vietnamese,vietnamese,37.79822,-122.42253,US,CA,San Francisco,94109
t6TROjhvQzXJEhjI_nm08g,Ly's Vietnamese Cuisine,4.5,467,$$,['pickup'],False,Vietnamese,vietnamese,37.80029,-122.43063,US,CA,San Francisco,94123
ykvr3ib1gHQHI4tznSn8iA,Wayfare Tavern,4.0,3944,$$$,"['pickup', 'delivery']",False,American (Traditional),tradamerican,37.794169,-122.402359,US,CA,San Francisco,94111
PsY5DMHxa5iNX_nX0T-qPA,Kokkari Estiatorio,4.5,4549,$$$,"['pickup', 'delivery']",False,"Greek, Mediterranean","greek, mediterranean",37.796996,-122.399661,US,CA,San Francisco,94111
eI0DpD2Xx8hFlk7eAdFCqQ,Swan Oyster Depot,4.0,2874,$$,['delivery'],False,Seafood,seafood,37.79083,-122.42097,US,CA,San Francisco,94109
dY0Mc_PHH6nLENvWmVtwxQ,Daeho Kalbijjim & Beef Soup,4.5,891,$$,"['pickup', 'delivery']",False,"Korean, Soup, Noodles","korean, soup, noodles",37.78601,-122.42858,US,CA,San Francisco,94115
-c4PVZ6ceySFd4DiVAuoBQ,Little Original Joe's,4.0,37,,,False,"Pizza, Italian, Beer, Wine & Spirits","pizza, italian, beer_and_wine",37.736583,-122.470316,US,CA,San Francisco,94127
T_8tOL18qiwy9VYR4mnl4Q,Do Eat Restaurant,4.5,14,,"['pickup', 'delivery']",False,Chinese,chinese,37.72546,-122.43389,US,CA,San Francisco,94112
IrfmgL_zZk3T_G8OzWoqMw,Tripleta,4.5,13,,,False,"Puerto Rican, Sandwiches","puertorican, sandwiches",37.761695,-122.424087,US,CA,San Francisco,94110
dWT3YCEWtLdkuj64ud5GLg,Gentilly,4.5,96,$$,"['pickup', 'delivery']",False,"Southern, American (New), Cajun/Creole","southern, newamerican, cajun",37.7209412091022,-122.437894270089,US,CA,San Francisco,94112
_1pt3zjz2Om9QC3OUSuTtA,Mahila,4.0,156,$$,"['restaurant_reservation', 'pickup', 'delivery']",False,Malaysian,malaysian,37.750925,-122.4342714,US,CA,San Francisco,94114
HgwZt2453wZg3Uc3sYFGMQ,Chicken Dog Bagels,5.0,5,,,False,"Pop-Up Restaurants, Bagels","popuprestaurants, bagels",37.744075,-122.420555,US,CA,San Francisco,94110
1dwJK21zm7cuhUKdROWJXQ,Taqueria Guadalajara,4.0,995,$,['delivery'],False,Mexican,mexican,37.7212907373905,-122.437459006906,US,CA,San Francisco,94112
gN4Jrrv8AaCrOSr8Y1JK5w,Man vs Fries,4.0,38,,"['pickup', 'delivery']",False,"Mexican, Pop-Up Restaurants","mexican, popuprestaurants",37.7474,-122.41794,US,CA,San Francisco,94110
wxzx3duu1c0CcomzEOvfOQ,The Front Porch,4.0,2880,$$,"['restaurant_reservation', 'pickup', 'delivery']",False,"Southern, Cajun/Creole, American (Traditional)","southern, cajun, tradamerican",37.7438,-122.422035,US,CA,San Francisco,94110
RTMeCUm9y6Lsz6TGGERPGg,Flour & Water Pasta Shop,5.0,1,,,False,"Salad, Pasta Shops, Sandwiches","salad, pastashops, sandwiches",37.759246,-122.411045,US,CA,San Francisco,94110
8kck3-K4zYKTJbJko0JlXQ,Farmhouse Kitchen Thai Cuisine,4.0,2673,$$,"['pickup', 'delivery']",False,"Thai, Comfort Food","thai, comfortfood",37.760192883932795,-122.4114188698492,US,CA,San Francisco,94110
rXZAemGGNu9fdQWx5JqWQg,Hwaro,4.0,213,$$,"['pickup', 'delivery']",False,"Korean, Chicken Wings","korean, chicken_wings",37.72564,-122.4343,US,CA,San Francisco,94112
BI40rGhpngLNPacrjWpseQ,Dumpling Kitchen,4.0,1629,$$,"['pickup', 'delivery']",False,Chinese,chinese,37.7423,-122.48701,US,CA,San Francisco,94116
5sBKlZlsTFZqNnVAPjzUoQ,Go Go 7,4.5,278,$$,['delivery'],False,Korean,korean,37.724133,-122.4566716,US,CA,San Francisco,94112
ojU7d4hPltcSrWGS1zYP7A,Keith's Chicken N Waffles,4.5,717,$$,['pickup'],False,"Southern, Soul Food, Waffles","southern, soulfood, waffles",37.6868567,-122.4695859,US,CA,Daly City,94014
SxHKYiRVnMd9BnTEaEB-FA,Chic n' Time,5.0,4,,"['pickup', 'delivery']",False,"Chicken Shop, Noodles, Asian Fusion","chickenshop, noodles, asianfusion",37.759907,-122.421268,US,CA,San Francisco,94110
PgJV1wOtwTuoUz_n5Mcyxw,Tacos El Patrón,4.0,431,$$,['delivery'],False,Tacos,tacos,37.748949,-122.416138,US,CA,San Francisco,94110
u-m_SPWmlq9AMesL0QVszA,India Gourmet,4.0,8,$,,False,"Indian, Food Stands","indpak, foodstands",37.72856,-122.47688,US,CA,San Francisco,94132
EP7wWVVI0oPckKgm6bHQzg,RakiRaki by Junya Watanabe,3.5,241,,"['pickup', 'delivery']",False,"Ramen, Sushi Bars","ramen, sushi",37.7444,-122.420922,US,CA,San Francisco,94110
2EGucgCJbPhkHjPTnZCzrg,El Farolito,4.0,680,$,['delivery'],False,Mexican,mexican,37.7211151123047,-122.437164306641,US,CA,San Francisco,94112
4rXyiTBn0b9xiuKkHoJ32g,Señor Sisig,4.0,199,$$,['delivery'],False,Filipino,filipino,37.757154,-122.421326,US,CA,San Francisco,94110
xYLz336Fq_VsLq6qgJ654Q,Stix,4.5,174,$,['delivery'],False,"Bubble Tea, Korean, Hot Dogs","bubbletea, korean, hotdog",37.742616,-122.4809192,US,CA,San Francisco,94116
wgxOKHZPprR9Ihgr2y-OQQ,Emmy's Spaghetti Shack,4.0,569,$$,"['restaurant_reservation', 'pickup', 'delivery']",False,Italian,italian,37.7451515,-122.4205093,US,CA,San Francisco,94110
QnJblnCp-mVsm5HVxcC0ig,The Mango Tree,4.5,13,,"['restaurant_reservation', 'pickup', 'delivery']",False,"Bars, Korean","bars, korean",37.74211,-122.49121,US,CA,San Francisco,94116
yEn0YT1wMC6hR7CVRX956w,Hawaiian Drive Inn,4.0,395,$,['delivery'],False,"Hawaiian, Barbeque","hawaiian, bbq",37.72097,-122.43719,US,CA,San Francisco,94112
0A_ZUL5r8wwL1oWnzmqSog,Komaaj,5.0,52,,"['pickup', 'delivery']",False,"Persian/Iranian, Diners, Cafes","persian, diners, cafes",37.7489738,-122.4172932,US,CA,San Francisco,94110
rlJntikl6JesFV-gb3eQYA,Le P'tit Laurent,4.0,766,$$$,['delivery'],False,French,french,37.7343618158181,-122.433787985458,US,CA,San Francisco,94131
5PzrfsdClyKipu3La3F20g,Bart Grocery & BBQ,4.5,850,$,['delivery'],False,"Grocery, Korean, Barbeque","grocery, korean, bbq",37.70578,-122.4641,US,CA,Daly City,94014
qp5AET3U6_BG1fM4TkPvng,Beep's Burgers,4.0,740,$$,,False,Burgers,burgers,37.72317,-122.45391,US,CA,San Francisco,94112
VcJzpsjaPi8HZ8zXI6GMOQ,Dear Inga,4.5,68,$$$,['delivery'],False,"Cocktail Bars, Hungarian, Modern European","cocktailbars, hungarian, modern_european",37.76183,-122.42292,US,CA,San Francisco,94110
eP9AMShgdcVahaVtvYsEaQ,Red's House SF,4.5,53,,"['pickup', 'delivery']",False,"Caribbean, Pop-Up Restaurants","caribbean, popuprestaurants",37.6878144,-122.4693472,US,CA,Daly City,94101
gcwl3UwaL_ogpYlgg8qdzQ,Amami Sushi Bistro,4.5,92,,"['pickup', 'delivery']",False,Sushi Bars,sushi,37.72715,-122.43271,US,CA,San Francisco,94112
IEcPu1HtVJfmPrRSGVMXiQ,3rd Cousin,4.0,291,$$$,['pickup'],False,American (New),newamerican,37.73907,-122.41366,US,CA,San Francisco,94110
RGeS1J38e5PmDOiGS-7bOA,Shish Ke Baba,5.0,287,$$,['delivery'],False,"Kebab, Turkish, Mediterranean","kebab, turkish, mediterranean",37.742213,-122.423143,US,CA,San Francisco,94110
kKm6pi-NazSJArAyVNH7RA,Noodle Station,4.0,146,$$,"['pickup', 'delivery']",False,"Asian Fusion, Noodles","asianfusion, noodles",37.70749,-122.45575,US,CA,Daly City,94014
q1Mv7oQSOorl4a9zbtl-rQ,Marugame Udon,4.0,1825,$$,"['pickup', 'delivery']",False,"Japanese, Noodles","japanese, noodles",37.727494,-122.476531,US,CA,San Francisco,94132
rKBJs9Pifk5k7FvGYG2GXw,Uncle Tetsu,4.0,66,,,False,"Bakeries, Desserts, Japanese","bakeries, desserts, japanese",37.72803789225965,-122.47689990212777,US,CA,San Francisco,94132
GyGNciKqyJ3ELHmw9jMeRA,Souvla,4.0,380,$$,['delivery'],False,"Greek, Mediterranean","greek, mediterranean",37.76082,-122.42181,US,CA,San Francisco,94110
73VFNuKCwyDzkvyPZ0pIUA,Pampanguena Cuisine,4.5,342,$$,['delivery'],False,Filipino,filipino,37.7270576,-122.4327544,US,CA,San Francisco,94112
9O4Y33B0JI2z9s_NsXNpGg,Peaches Patties,4.5,66,$$,['delivery'],False,Caribbean,caribbean,37.750142,-122.414113,US,CA,San Francisco,94110
vsiJDU-0_cdYrf1Otawtbw,Piqueo's,4.0,681,$$$,['delivery'],False,"Latin American, Peruvian","latin, peruvian",37.7387299,-122.41407,US,CA,San Francisco,94110
HlDkf_7TxPLaPn882N1Nxw,Base Camp,5.0,47,,"['restaurant_reservation', 'pickup', 'delivery']",False,Himalayan/Nepalese,himalayan,37.75873,-122.41502,US,CA,San Francisco,94110
mvPT__X1KlyDx78Ol2E4dQ,Brazuca Grill,5.0,8,,,False,"Brazilian, Food Trucks","brazilian, foodtrucks",37.7580894,-122.3916149,US,CA,San Francisco,94107
cCVe4vppMNYQf9vguaf9Eg,Seafood Station,5.0,25,$$,,False,"Seafood, Cajun/Creole, American (New)","seafood, cajun, newamerican",37.73901,-122.41446,US,CA,San Francisco,94110
1toCkhuD0b57iFotMu3XEQ,La Ciccia,4.5,1115,$$$,['delivery'],False,"Seafood, Sardinian","seafood, sardinian",37.7420027017,-122.426627318,US,CA,San Francisco,94131
JWejPF1dVW29p2MZHUdw1A,Pakwan Restaurant,4.0,351,$$,['delivery'],False,"Halal, Indian, Pakistani","halal, indpak, pakistani",37.723777,-122.45397,US,CA,San Francisco,94112
lgD2BDiMtW3UhM6rk3IUNw,Chicken as Cluck,4.0,161,$$,"['pickup', 'delivery']",False,"Chicken Shop, Food Delivery Services","chickenshop, fooddeliveryservices",37.7505862896473,-122.395178442908,US,CA,San Francisco,94124
NWu1cDtYArkjWw2F8PzU9Q,Spiazzo Ristorante,4.0,689,$$,"['restaurant_reservation', 'pickup']",False,"Italian, Seafood, Gluten-Free","italian, seafood, gluten_free",37.74035,-122.46588,US,CA,San Francisco,94127
wEpiKz--Z2b1q_FSCCNiow,Lolinda,4.0,2011,$$$,['delivery'],False,"Steakhouses, Tapas/Small Plates, Latin American","steak, tapasmallplates, latin",37.7566658,-122.419116,US,CA,San Francisco,94110
AjQYQsVEJQUOXnddE-2WIw,Seoul Train,4.0,2,,['delivery'],False,Korean,korean,37.7501,-122.394986,US,CA,San Francisco,94124
xv8dq_jBNfQkHeX2wJGlAg,Coqueta,4.0,2114,$$$,"['pickup', 'delivery']",False,"Spanish, Tapas/Small Plates","spanish, tapasmallplates",37.798588,-122.396639,US,CA,San Francisco,94111
Qbr2JG96K6d31NqqAUxf9g,La Mar Cebichería Peruana,4.0,3806,$$$,"['pickup', 'delivery']",False,"Latin American, Seafood, Peruvian","latin, seafood, peruvian",37.7974182368553,-122.395129846558,US,CA,San Francisco,94111
kn782Mw92uchlBI2CyosOQ,Tokyo Hot Chicken San Francisco,4.0,24,,"['pickup', 'delivery']",False,Chicken Shop,chickenshop,37.792886,-122.397979,US,CA,San Francisco,94111
PsY5DMHxa5iNX_nX0T-qPA,Kokkari Estiatorio,4.5,4549,$$$,"['pickup', 'delivery']",False,"Greek, Mediterranean","greek, mediterranean",37.796996,-122.399661,US,CA,San Francisco,94111
Xg-FyjVKAN70LO4u4Z1ozg,Hog Island Oyster Co,4.5,6090,$$,,False,"Seafood, Seafood Markets, Live/Raw Food","seafood, seafoodmarkets, raw_food",37.795831,-122.393303,US,CA,San Francisco,94111
iZ5NUxUFQZVue7O8NBeqFg,Reem's California,5.0,1,,,False,"Arabian, Pop-Up Restaurants","arabian, popuprestaurants",37.79556,-122.393418,US,CA,San Francisco,94111
DeGdhZKXoTnyyFc8GC2BHg,Waterfront Restaurant,3.0,1196,$$$,['delivery'],False,"Seafood, American (Traditional)","seafood, tradamerican",37.7993774767812,-122.397444471717,US,CA,San Francisco,94111
cvWuRzkFcf5KrEBiZEoYEA,Bask,4.0,665,$$,"['pickup', 'restaurant_reservation']",False,"Basque, Spanish, Tapas Bars","basque, spanish, tapas",37.7962703,-122.4041447,US,CA,San Francisco,94111
7Q3QIZz5UX-JSTSKKkRqDg,Waterbar,3.5,3129,$$$,"['pickup', 'delivery']",False,"Seafood, American (New), Live/Raw Food","seafood, newamerican, raw_food",37.7904941686413,-122.389039464859,US,CA,San Francisco,94105
ykvr3ib1gHQHI4tznSn8iA,Wayfare Tavern,4.0,3944,$$$,"['pickup', 'delivery']",False,American (Traditional),tradamerican,37.794169,-122.402359,US,CA,San Francisco,94111
HVJdo4f_6MxkM_1aCAK3NA,Cotogna,4.0,1477,$$$,['delivery'],False,Italian,italian,37.7975,-122.40336,US,CA,San Francisco,94133
8Fvu6GoWT4ZPV1N_9em_-Q,Noodle Time,4.0,91,$,['delivery'],False,Vietnamese,vietnamese,37.79689,-122.40106,US,CA,San Francisco,94111
8dUaybEPHsZMgr1iKgqgMQ,Sotto Mare Oysteria & Seafood,4.5,3843,$$,"['delivery', 'pickup']",False,"Seafood, Italian, Bars","seafood, italian, bars",37.79979,-122.40834,US,CA,San Francisco,94133
bvdEOVmFuWUV0sAALc_-zw,Harborview Restaurant & Bar,4.0,473,,"['delivery', 'restaurant_reservation', 'pickup']",False,"Chinese, Lounges, Seafood","chinese, lounges, seafood",37.794959,-122.395663,US,CA,San Francisco,94111
GXUEdea6q-bULIdDEZz0yw,Saison Smokehouse,4.5,61,,,False,"American (New), Barbeque","newamerican, bbq",37.79307,-122.39212,US,CA,San Francisco,94105
I8T8aoAsFQYwQiRvLBayFA,Il Casaro Pizzeria & Mozzarella Bar - North Beach Location,4.5,1230,$$,"['pickup', 'restaurant_reservation', 'delivery']",False,"Italian, Pizza","italian, pizza",37.79852,-122.40739,US,CA,San Francisco,94133
1pq5mmp71nXWBK_jG9VxHg,Golden Star Vietnamese Restaurant,4.0,1233,$,['delivery'],False,"Vietnamese, Noodles, Soup","vietnamese, noodles, soup",37.7945505827665,-122.405742555857,US,CA,San Francisco,94108
PNxwbgtfdpldd3CyJFIw3w,Ozumo,4.0,2325,$$$,"['delivery', 'restaurant_reservation', 'pickup']",False,"Sushi Bars, Japanese, Steakhouses","sushi, japanese, steak",37.792673,-122.392236,US,CA,San Francisco,94105
qXUzHmPdbGEt5EKSdWqbmg,Gott's Roadside,3.5,2717,$$,"['pickup', 'delivery']",False,"Ice Cream & Frozen Yogurt, Salad, Burgers","icecream, salad, burgers",37.7961786095916,-122.39410980362,US,CA,San Francisco,94111
Wd5ho0_FKk9n7uV8pSCYIg,Barbacco,4.0,1622,$$,"['pickup', 'delivery']",False,"Italian, Bars","italian, bars",37.7935921194034,-122.399338591436,US,CA,San Francisco,94111
Tttm1r5Dw1sRMCfc3EQWPw,Boulevard,4.0,2669,$$$,['delivery'],False,American (New),newamerican,37.79337,-122.39274,US,CA,San Francisco,94105
cHoNUKltOAJWSmNfsZ1h-w,Hunan Home's Restaurant,4.0,2193,$$,"['pickup', 'delivery']",False,Chinese,chinese,37.7964057922363,-122.405654907227,US,CA,San Francisco,94133
oRfws6g_zxtiYDTHtySDDQ,Little Window by Bicycle Banh Mi,4.5,46,$$,['delivery'],False,Vietnamese,vietnamese,37.8009263,-122.4022537,US,CA,San Francisco,94111
aINJgFdqCjILgZdsVttnug,Kingbob,4.0,7,,['delivery'],False,Korean,korean,37.79442,-122.40386,US,CA,San Francisco,94111
5D--FJXQHdC3kZWYm2GREg,Barcha,4.0,500,$$,"['pickup', 'delivery']",False,"Mediterranean, Tapas/Small Plates","mediterranean, tapasmallplates",37.7909966558218,-122.397482693195,US,CA,San Francisco,94105
PTFxtXS47ZVRCdZIrEWvGw,Golden Boy Pizza,4.5,3673,$,['delivery'],False,"Pizza, Italian","pizza, italian",37.7997956,-122.4080729,US,CA,San Francisco,94133
RmiAHDQ9z-qzvA7gcLsUZQ,Unco Frank’s,5.0,2,,,False,Hawaiian,hawaiian,37.797716,-122.406147,US,CA,San Francisco,94133
Z_X0WvSmh9DUxBD9xhet9Q,Sam Wo Restaurant,4.0,1082,$,"['pickup', 'delivery']",False,Chinese,chinese,37.7942543029785,-122.405113220215,US,CA,San Francisco,94108
PzPPcGVg5O4UuW5cTopJhA,BIX,4.0,1829,$$$,['delivery'],False,American (Traditional),tradamerican,37.79686,-122.40291,US,CA,San Francisco,94133
yrKFfnMSXTRuq-hkTGM9eA,Chubby Noodle,4.0,626,$$,"['delivery', 'pickup']",False,"Asian Fusion, Noodles, Chinese","asianfusion, noodles, chinese",37.7997609,-122.4085676,US,CA,San Francisco,94133
Fo5Wscbb9rwcLuaO-sc2zQ,Delicious Dim Sum,4.0,977,$,['delivery'],False,"Dim Sum, Cantonese","dimsum, cantonese",37.796051,-122.4076004,US,CA,San Francisco,94133
_D1Ev_zTZs5ijHkleK6C2w,Hillstone,4.0,2237,$$$,['delivery'],False,"American (New), Wine Bars","newamerican, wine_bars",37.805712595582,-122.405280545354,US,CA,San Francisco,94111
Ct5GgouaAvcegaaP4gR0EA,El Porteño Empanadas,4.0,800,$,['delivery'],False,"Argentine, Empanadas","argentine, empanadas",37.795599,-122.39341,US,CA,San Francisco,94111
8GqReA8EJ3UGRuIFbd9jyQ,Chong Qing Xiao Mian,4.0,851,$$,['delivery'],False,"Noodles, Szechuan","noodles, szechuan",37.796386,-122.4053411,US,CA,San Francisco,94133
DQbj_4KT6I_ha6SX1a_drQ,il Cilentano,5.0,64,,"['delivery', 'restaurant_reservation', 'pickup']",False,"Pizza, Wine Bars, Italian","pizza, wine_bars, italian",37.8,-122.41012,US,CA,San Francisco,94133
kKVCVJVVNFae6KA1X5FWew,Portofino,5.0,87,,,False,"Seafood, Salad, Sandwiches","seafood, salad, sandwiches",37.7990847322348,-122.407166666667,US,CA,San Francisco,94133
LysKaLPCFOdsUnlJC48Trg,Gozu,4.5,50,$$$$,['delivery'],False,"Japanese, Beer, Wine & Spirits","japanese, beer_and_wine",37.79123,-122.391975,US,CA,San Francisco,94105
1EWkmc_myDLYfvorOnYzEA,Hinodeya Downtown,4.5,193,$$,"['pickup', 'delivery']",False,Ramen,ramen,37.794597,-122.404432,US,CA,San Francisco,94111
GzOumj6_QOeQByuc_0yajQ,Z & Y Restaurant,3.5,1761,$$,"['pickup', 'delivery', 'restaurant_reservation']",False,Chinese,chinese,37.7960764706099,-122.406014800072,US,CA,San Francisco,94133
C0whbbQhUMBv8X-Mmtqrcg,House of Nanking,3.5,3404,$$,"['pickup', 'delivery']",False,"Dim Sum, Cantonese, Noodles","dimsum, cantonese, noodles",37.79649,-122.405392,US,CA,San Francisco,94133
voFE8DTKsTFi1Vzm_zzd0Q,Don Pistos,4.0,1835,$$,"['delivery', 'pickup']",False,"Mexican, Tex-Mex, Latin American","mexican, tex-mex, latin",37.800773,-122.407964,US,CA,San Francisco,94133
eG5VcB6XuSp-C1mAggD_Cg,Piperade,4.0,881,$$$,['delivery'],False,"Basque, French","basque, french",37.800646,-122.401799,US,CA,San Francisco,94111
JPL5OqxmoKGWXZxVSlYkag,Yo Yo's,4.5,557,$,['delivery'],False,Japanese,japanese,37.7977025439747,-122.401235478539,US,CA,San Francisco,94111
3f3mowACWFovTKv0YlcMgQ,Pier 23 Cafe Restaurant & Bar,3.5,1745,$$,"['pickup', 'delivery']",False,"Seafood, Bars, American (New)","seafood, bars, newamerican",37.8033755766027,-122.400886416435,US,CA,San Francisco,94102
mSMZJj2pFvttWLpcDmgrEA,Tony's Pizza Napoletana,4.0,5232,$$,['delivery'],False,"Pizza, Italian, Cocktail Bars","pizza, italian, cocktailbars",37.8003315377662,-122.409053979377,US,CA,San Francisco,94133
-sg6DqQNGyTMt0MHoY7diQ,Good Mong Kok Bakery,4.0,2749,$,['delivery'],False,"Bakeries, Dim Sum, Cantonese","bakeries, dimsum, cantonese",37.7954584839809,-122.408358365012,US,CA,San Francisco,94108
fK6ZCDLTFtPV9HT4oAo5-w,Roli Roti Gourmet Rotisserie,4.5,1473,$$,,False,"Sandwiches, Food Trucks, Specialty Food","sandwiches, foodtrucks, gourmet",37.795398235987,-122.392534017563,US,CA,San Francisco,94105
Q8cYhJGa9pwlu63f-KMV-A,5A5 Steak Lounge,4.0,2217,$$$,"['pickup', 'delivery']",False,"Steakhouses, Bars","steak, bars",37.7969972,-122.4000609,US,CA,San Francisco,94111
YXfnD0aFmXiicGij8sMymg,Taishan Cuisine,4.5,6,,"['pickup', 'delivery']",False,"Chinese, Noodles, Hot Pot","chinese, noodles, hotpot",37.7972962175206,-122.409876510501,US,CA,San Francisco,94133
_mdxYZT1RDtKTZcYz9mo8g,Mangia Tutti Ristorante,4.0,438,$$,"['pickup', 'delivery', 'restaurant_reservation']",False,Italian,italian,37.79448,-122.40375,US,CA,San Francisco,94111
TIvMX0RWgx15o5zwfWe2Pw,Schlok’s,4.5,3,,,False,"Pop-Up Restaurants, Bagels","popuprestaurants, bagels",37.790938,-122.434436,US,CA,San Francisco,94115
cCVR9W_L2rqexfKAjfBTzQ,Routier,5.0,15,,,False,French,french,37.78789,-122.440595,US,CA,San Francisco,94115
o4x29HYKvEUf7Regrn-J9g,Troya,4.0,611,$$,"['restaurant_reservation', 'delivery', 'pickup']",False,"Mediterranean, Turkish","mediterranean, turkish",37.7893743915288,-122.434076070785,US,CA,San Francisco,94115
_hOVIgjVRl_HzvLaa65KJg,The Snug,4.0,223,$$,['delivery'],False,"Cocktail Bars, American (Traditional)","cocktailbars, tradamerican",37.79094,-122.43443,US,CA,San Francisco,94115
QZQGRJZ4bZCmNoXjs3z1XQ,State Bird Provisions,4.0,2777,$$$,['delivery'],False,"Tapas/Small Plates, American (New), Desserts","tapasmallplates, newamerican, desserts",37.78374,-122.433005,US,CA,San Francisco,94115
HHtpR0RslupSQ99GIIwW5A,Marufuku Ramen SF,4.5,3102,$$,"['delivery', 'pickup']",False,Ramen,ramen,37.785014,-122.431842,US,CA,San Francisco,94115
4eaK2-Q0dEXWMr5SOoV_Sg,Roam Artisan Burgers,4.0,1227,$$,"['delivery', 'pickup']",False,Burgers,burgers,37.787682,-122.433853,US,CA,San Francisco,94115
z4g4bZPR-Z8bFlwv9APl2w,Presidio Kebab,5.0,103,$$,"['delivery', 'pickup']",False,Kebab,kebab,37.7880728,-122.4468073,US,CA,San Francisco,94115
I0qXHSJwUR0Xj8H91ovBPA,My Father's Kitchen,3.5,472,$$,['delivery'],False,Vietnamese,vietnamese,37.78497,-122.44005,US,CA,San Francisco,94115
PFk6k_hEGG0n6_FAJSm9EQ,Woodhouse Fish Company,4.0,2278,$$,['delivery'],False,"Seafood, American (New)","seafood, newamerican",37.78742,-122.43327,US,CA,San Francisco,94115
dY0Mc_PHH6nLENvWmVtwxQ,Daeho Kalbijjim & Beef Soup,4.5,891,$$,"['delivery', 'pickup']",False,"Korean, Soup, Noodles","korean, soup, noodles",37.78601,-122.42858,US,CA,San Francisco,94115
kFgjHGp-cTUK5uPaSJOORA,Souvla,4.0,1418,$$,['delivery'],False,"Greek, Mediterranean","greek, mediterranean",37.77643,-122.425,US,CA,San Francisco,94102
u1SfgyXufKvyFLbYZGGI_g,Che Fico Alimentari,4.5,78,$$$,,False,Italian,italian,37.777467,-122.437936,US,CA,San Francisco,94117
ejL_RHoWyyZBhoA9ImR9vg,apizza,4.5,123,$,"['delivery', 'pickup']",False,Pizza,pizza,37.78846,-122.434,US,CA,San Francisco,94115
CS0pUlk25RV2-vhKFFbxqA,The Progress,4.0,903,$$$$,,False,"American (New), Bars","newamerican, bars",37.7836608886719,-122.433074951172,US,CA,San Francisco,94115
UdRV_X0aah6c2_LLbB8dGg,Yama-chan,4.0,98,$,['delivery'],False,Japanese,japanese,37.785275,-122.429119,US,CA,San Francisco,94115
wPJjpOZ0mnsajJLBkWUnwA,Pizzeria Delfina - Pacific Heights,4.0,1489,$$,"['delivery', 'pickup']",False,"Pizza, Italian","pizza, italian",37.789104,-122.434441,US,CA,San Francisco,94115
Ldq4XfNsXM-ciulyDUlMmw,Sweet Lime Thai Cuisine,4.0,505,$$,"['delivery', 'pickup']",False,"Thai, Gluten-Free","thai, gluten_free",37.7860027535405,-122.435123975131,US,CA,San Francisco,94115
168JCbfPASa30FoHZZaIEg,Boba Guys,4.0,665,$,['delivery'],False,"Cafes, Bubble Tea, Tea Rooms","cafes, bubbletea, tea",37.78365,-122.43247,US,CA,San Francisco,94115
h5ohkmv-UQiJTKFzxSS6RQ,Noosh,3.5,358,$$,['delivery'],False,"Mediterranean, Bakeries, Sandwiches","mediterranean, bakeries, sandwiches",37.7880771447147,-122.43393894285,US,CA,San Francisco,94115
SJEd7ymnKMp3vpElbEEa-g,San Francisco Athletic Club,4.0,246,$$,"['restaurant_reservation', 'delivery', 'pickup']",False,"Sports Bars, Burgers, Hot Dogs","sportsbars, burgers, hotdog",37.785973,-122.439697,US,CA,San Francisco,94115
RJjuozKTsgwPNa429tnxbg,The Cheese Steak Shop,4.0,952,$$,"['delivery', 'pickup']",False,"Sandwiches, Cheesesteaks","sandwiches, cheesesteaks",37.78558,-122.43963,US,CA,San Francisco,94115
CS6NaMbTlzD-9yc3DBBrKw,El Burrito Express,4.0,761,$,['pickup'],False,"Mexican, Seafood, Breakfast & Brunch","mexican, seafood, breakfast_brunch",37.78646,-122.43982,US,CA,San Francisco,94115
iZ5VBmyFAZyJCt88KLwhJw,La Mediterranee,4.0,1555,$$,"['delivery', 'pickup']",False,"Middle Eastern, Mediterranean, Armenian","mideastern, mediterranean, armenian",37.7900665,-122.4338783,US,CA,San Francisco,94115
-DrR38H1Abk0wCyu9XOLug,Sweet Maple,4.5,3821,$$,"['delivery', 'pickup']",False,"American (Traditional), Breakfast & Brunch, Burgers","tradamerican, breakfast_brunch, burgers",37.785735681426,-122.43507770852,US,CA,San Francisco,94115
4YQg81cDjn2Ei7NYvRHXpA,Chouquet's,3.5,612,$$,"['delivery', 'pickup']",False,French,french,37.791795,-122.434541,US,CA,San Francisco,94115
4vqUi0Zrhj6D7nAaMZz-OQ,B on the Go,4.0,195,$$,,False,"Cafes, Sandwiches","cafes, sandwiches",37.7882800064693,-122.440317458614,US,CA,San Francisco,94115
vth2jtXfVUCRJeIP680CyA,Udon Mugizo,4.0,875,$$,"['delivery', 'pickup']",False,"Japanese, Noodles","japanese, noodles",37.78501,-122.431741,US,CA,San Francisco,94115
r2jiJk3yivcLkWSSYELGcA,Tataki,4.0,1277,$$,['delivery'],False,"Sushi Bars, Bars","sushi, bars",37.7878390504557,-122.441227674274,US,CA,San Francisco,94115
rf39v0UmaNk1SZZ9HuZ3hA,Glaze Teriyaki,4.0,477,$$,"['delivery', 'pickup']",False,"Japanese, Korean, Gluten-Free","japanese, korean, gluten_free",37.7879022,-122.433527,US,CA,San Francisco,94115
_KtkAiwyxHbkn9O6yEMvjA,Bun Mee,3.5,920,$$,"['delivery', 'pickup']",False,"Vietnamese, Sandwiches","vietnamese, sandwiches",37.788177,-122.433951,US,CA,San Francisco,94115
Cp_rUceIEyUzIe4DkrxDSA,Zazang Korean Noodles,3.5,512,$$,"['restaurant_reservation', 'delivery', 'pickup']",False,"Korean, Noodles, Soup","korean, noodles, soup",37.7831089496613,-122.441855818033,US,CA,San Francisco,94115
_zfxJqH3XZ65X8sNYVKGqg,Pa'ina Lounge & Restaurant,4.0,611,$$,"['delivery', 'pickup']",False,"Hawaiian, Bars, Venues & Event Spaces","hawaiian, bars, venues",37.785115,-122.432376,US,CA,San Francisco,94115
_CBWlkmYGYRwQFxpWwxEDg,Arang Restaurant,3.5,615,$$,['delivery'],False,Korean,korean,37.7834828,-122.4325721,US,CA,San Francisco,94115
yDFSeXOL--o87nHmYas2Mw,Smokin’ Warehouse Barbecue,4.0,69,$$,['delivery'],False,"American (Traditional), Barbeque","tradamerican, bbq",37.7882865,-122.4476947,US,CA,San Francisco,94118
OVLexCW4wdYDUc_Oc4NfVw,opa cafe,4.5,335,$,"['delivery', 'pickup']",False,"Mediterranean, Sandwiches, Salad","mediterranean, sandwiches, salad",37.783969,-122.441505,US,CA,San Francisco,94115
f_uf8paCL1pJ29ZI4AyiEg,Via Veneto,4.0,260,$$,['delivery'],False,Italian,italian,37.7904777526855,-122.433876037598,US,CA,San Francisco,94115
JoU4A0wItwpBr1s-pyiCxg,Sorrel,4.0,235,$$$,"['delivery', 'pickup']",False,"American (New), Italian","newamerican, italian",37.788563,-122.446188,US,CA,San Francisco,94115
cEuUIXX-4MpkIen8QZVYOQ,Samara Southern Creations,4.5,4,,,False,"Pop-Up Restaurants, Southern","popuprestaurants, southern",37.78655,-122.43719,US,CA,San Francisco,94115
p6bLw7PS63Kbge_wyIOP8w,Garibaldi's,4.0,547,$$$,['delivery'],False,American (New),newamerican,37.7883799,-122.44729,US,CA,San Francisco,94115
Fe-YjAdSRLqDC2H_pqPcSw,Hinodeya Ramen Bar,4.0,1182,$$,"['delivery', 'pickup']",False,Ramen,ramen,37.7861574638014,-122.430057115853,US,CA,San Francisco,94115
OszsET0UWoIeCQ4YVxhPWg,Pacific Food Mart,4.0,29,$,['delivery'],False,"Grocery, Delis, Sandwiches","grocery, delis, sandwiches",37.7855559,-122.4363723,US,CA,San Francisco,94115
NH1tpRk-TypznNFACTTDuw,Sasa,4.0,243,$$$,"['restaurant_reservation', 'delivery', 'pickup']",False,"Japanese, Sushi Bars","japanese, sushi",37.78518,-122.4292,US,CA,San Francisco,94115
8aqzfjnuT5LhuveW3e6CoA,Octavia,4.0,579,$$$,['delivery'],False,American (New),newamerican,37.7879638671875,-122.427192687988,US,CA,San Francisco,94109
PiY8Ks8KWlIcAvqNdMjvBA,Izakaya KOU,4.0,815,$$,"['delivery', 'pickup']",False,"Tapas/Small Plates, Lounges, Izakaya","tapasmallplates, lounges, izakaya",37.784139,-122.432649,US,CA,San Francisco,94115
5hMvpYsCjjirZf_4kt8GyQ,I'a Poke,4.0,101,$$,['delivery'],False,"Poke, Sushi Bars","poke, sushi",37.78349,-122.43327,US,CA,San Francisco,94115
uEucSd4jwY_zb10AcEye_g,SPQR,3.5,1971,$$$,['delivery'],False,"Italian, Wine Bars, Breakfast & Brunch","italian, wine_bars, breakfast_brunch",37.78725,-122.43376,US,CA,San Francisco,94115
yhOdQqSZpK7LmRlFzKnbYQ,Jackson Fillmore Trattoria,4.0,496,$$,"['delivery', 'pickup']",False,"Italian, Wine Bars","italian, wine_bars",37.7927033,-122.4344669,US,CA,San Francisco,94115
XAIuCODMY4aFeBnpYZArdw,Beijing Tokyo Bistro,4.5,9,,"['delivery', 'pickup']",False,"Chinese, Japanese","chinese, japanese",37.78834106855354,-122.4402103,US,CA,San Francisco,94115
BqYRlHSLJHHEpdGQo-jzXg,La Boulangerie,4.5,28,$$,,False,"Bakeries, Salad, Coffee Roasteries","bakeries, salad, coffeeroasteries",37.7876281738281,-122.434028625488,US,CA,San Francisco,94115
IrfmgL_zZk3T_G8OzWoqMw,Tripleta,4.5,13,,,False,"Puerto Rican, Sandwiches","puertorican, sandwiches",37.761695,-122.424087,US,CA,San Francisco,94110
_1pt3zjz2Om9QC3OUSuTtA,Mahila,4.0,156,$$,"['restaurant_reservation', 'pickup', 'delivery']",False,Malaysian,malaysian,37.750925,-122.4342714,US,CA,San Francisco,94114
SxHKYiRVnMd9BnTEaEB-FA,Chic n' Time,5.0,4,,"['pickup', 'delivery']",False,"Chicken Shop, Noodles, Asian Fusion","chickenshop, noodles, asianfusion",37.759907,-122.421268,US,CA,San Francisco,94110
agq8VUqVQ_Y3dZh6-IjeIg,MaMa Ji's,4.0,764,$$,['delivery'],False,"Dim Sum, Szechuan","dimsum, szechuan",37.7607584141734,-122.438729188523,US,CA,San Francisco,94114
kFgjHGp-cTUK5uPaSJOORA,Souvla,4.0,1418,$$,['delivery'],False,"Greek, Mediterranean","greek, mediterranean",37.77643,-122.425,US,CA,San Francisco,94102
4rXyiTBn0b9xiuKkHoJ32g,Señor Sisig,4.0,199,$$,['delivery'],False,Filipino,filipino,37.757154,-122.421326,US,CA,San Francisco,94110
J7_-faNq_Ag9qTOlDn81Pw,Starbelly,4.0,1885,$$,"['pickup', 'delivery']",False,"Comfort Food, Cocktail Bars, Wine Bars","comfortfood, cocktailbars, wine_bars",37.7640744,-122.4325634,US,CA,San Francisco,94114
VcJzpsjaPi8HZ8zXI6GMOQ,Dear Inga,4.5,68,$$$,['delivery'],False,"Cocktail Bars, Hungarian, Modern European","cocktailbars, hungarian, modern_european",37.76183,-122.42292,US,CA,San Francisco,94110
wdqRLypbCo7KCyhLNB8mIQ,Souvla,4.0,465,$$,['delivery'],False,"Mediterranean, Greek","mediterranean, greek",37.7744799,-122.43802,US,CA,San Francisco,94117
d5752S_RDb26HxoL6O06eQ,Beit Rima,4.5,68,$$,,False,"Arabian, Mediterranean, Lebanese","arabian, mediterranean, lebanese",37.765956,-122.449679,US,CA,San Francisco,94117
LsGkxQK217twdzZzVXsSRg,CreoLa,4.5,56,,"['restaurant_reservation', 'delivery']",False,"Bars, Seafood, Cajun/Creole","bars, seafood, cajun",37.7662642,-122.4527631,US,CA,San Francisco,94117
v6iAL-bM8rjkL1E7jIItXw,Willkommen,4.5,102,$$,"['pickup', 'delivery']",False,"German, Comfort Food, Breweries","german, comfortfood, breweries",37.7662780850621,-122.430849708617,US,CA,San Francisco,94114
HgwZt2453wZg3Uc3sYFGMQ,Chicken Dog Bagels,5.0,5,,,False,"Pop-Up Restaurants, Bagels","popuprestaurants, bagels",37.744075,-122.420555,US,CA,San Francisco,94110
UNmJz8U03hjA5I5DB87BBw,Berliner Berliner,5.0,34,,['delivery'],False,"German, Burgers","german, burgers",37.77183,-122.43114,US,CA,San Francisco,94117
sJrlDmxVymCJ6AMS1GzBrg,Ken,5.0,3,,,False,"Japanese, Sushi Bars","japanese, sushi",37.77152,-122.43688,US,CA,San Francisco,94117
pgjbSwK_8DH2o_zQsr3dRQ,AshYan's Lu Ruo Fan,5.0,4,,,False,"Taiwanese, Food Delivery Services","taiwanese, fooddeliveryservices",37.77713,-122.41964,US,CA,San Francisco,
kOYj2sGMZnyC1lU-_Uw5fA,Cha Cha Cha,4.0,3218,$$,['delivery'],False,"Caribbean, Cuban, Tapas Bars","caribbean, cuban, tapas",37.7691434,-122.4520399,US,CA,San Francisco,94117
SGRmnarrNuVEsAjYdEoA0w,El Farolito,4.0,4986,$,['delivery'],False,Mexican,mexican,37.75265,-122.41812,US,CA,San Francisco,94110
u1SfgyXufKvyFLbYZGGI_g,Che Fico Alimentari,4.5,78,$$$,,False,Italian,italian,37.777467,-122.437936,US,CA,San Francisco,94117
v3qnV929O7VFRVUB5hd72A,SF Chickenbox,4.5,102,,"['pickup', 'delivery']",False,"Chicken Shop, Sandwiches, Soul Food","chickenshop, sandwiches, soulfood",37.7597582,-122.4212092,US,CA,San Francisco,94110
0A_ZUL5r8wwL1oWnzmqSog,Komaaj,5.0,52,,"['pickup', 'delivery']",False,"Persian/Iranian, Diners, Cafes","persian, diners, cafes",37.7489738,-122.4172932,US,CA,San Francisco,94110
uUifmxOmL8ClHXyRVsmD3Q,Bodega SF,4.5,35,,,False,"Vietnamese, Noodles","vietnamese, noodles",37.76085,-122.43365,US,CA,San Francisco,94114
9acPdpguULGPbChPwpS3aw,Ragazza,4.0,671,$$,"['restaurant_reservation', 'delivery']",False,"Italian, Pizza","italian, pizza",37.772476,-122.437473,US,CA,San Francisco,94117
Vqq-m8VvLWH2pV5BZZeRoA,DragonEats,4.5,223,$,['delivery'],False,Vietnamese,vietnamese,37.769497,-122.450111,US,CA,San Francisco,94117
reXWH9Wo0ZTOuQsTMNOSxg,Fable,4.0,523,$$,"['pickup', 'delivery']",False,"American (New), Wine Bars, Breakfast & Brunch","newamerican, wine_bars, breakfast_brunch",37.759958,-122.435089,US,CA,San Francisco,94114
PgJV1wOtwTuoUz_n5Mcyxw,Tacos El Patrón,4.0,431,$$,['delivery'],False,Tacos,tacos,37.748949,-122.416138,US,CA,San Francisco,94110
ttarnopezxmp2ROB1N2PaA,Nopa,4.0,5089,$$$,['delivery'],False,"American (New), Desserts, Cocktail Bars","newamerican, desserts, cocktailbars",37.77483,-122.43746,US,CA,San Francisco,94117
vmZ-bgnM5B76NUpegAjy1g,Hotbird,4.5,131,,,False,"Sandwiches, Chicken Shop, Burgers","sandwiches, chickenshop, burgers",37.7768004184036,-122.416263845447,US,CA,San Francisco,94103
n3hTvILJyQ-XDchvrW7PBg,Billingsgate,4.5,15,,,False,"Seafood, Bars, Seafood Markets","seafood, bars, seafoodmarkets",37.75152,-122.42879,US,CA,San Francisco,94114
HlDkf_7TxPLaPn882N1Nxw,Base Camp,5.0,47,,"['restaurant_reservation', 'pickup', 'delivery']",False,Himalayan/Nepalese,himalayan,37.75873,-122.41502,US,CA,San Francisco,94110
gN4Jrrv8AaCrOSr8Y1JK5w,Man vs Fries,4.0,38,,"['pickup', 'delivery']",False,"Mexican, Pop-Up Restaurants","mexican, popuprestaurants",37.7474,-122.41794,US,CA,San Francisco,94110
hXeusGZQvH5oMxaR6XgYwA,Super Duper Burgers,4.0,1314,$,['delivery'],False,"Burgers, American (Traditional)","burgers, tradamerican",37.7640301,-122.433699,US,CA,San Francisco,94114
i_OkjtKWm02Upc-PlcUrrg,Firefly Restaurant,4.0,1456,$$$,['delivery'],False,"American (New), Gluten-Free, Chicken Wings","newamerican, gluten_free, chicken_wings",37.751206,-122.438189,US,CA,San Francisco,94114
xQQ3qLbjxI4DwQoFLWqsNA,El Rinconcito Nicaraguense,4.0,49,$$,['delivery'],False,Nicaraguan,nicaraguan,37.74996,-122.41788,US,CA,San Francisco,94110
GyGNciKqyJ3ELHmw9jMeRA,Souvla,4.0,380,$$,['delivery'],False,"Greek, Mediterranean","greek, mediterranean",37.76082,-122.42181,US,CA,San Francisco,94110
wxzx3duu1c0CcomzEOvfOQ,The Front Porch,4.0,2880,$$,"['restaurant_reservation', 'pickup', 'delivery']",False,"Southern, Cajun/Creole, American (Traditional)","southern, cajun, tradamerican",37.7438,-122.422035,US,CA,San Francisco,94110
